{
 "Thessaloniki": [
  {
   "county": "Thessaloniki Regional Unit",
   "state_district": "Central Macedonia",
   "ISO3166-2-lvl5": "GR-B",
   "state": "Macedonia and Thrace",
   "country": "Greece",
   "countryCode": "GR",
   "latitude": "40.6403167",
   "longitude": "22.9352716"
  }
 ],
 "Amsterdam": [
  {
   "latitude": 52.3727598,
   "longitude": 4.8936041,
   "formattedAddress": "Amsterdam, Noord-Holland, Nederland",
   "country": "Nederland",
   "city": "Amsterdam",
   "state": "Noord-Holland",
   "countryCode": "NL",
   "neighbourhood": "",
   "provider": "openstreetmap"
  },
  {
   "latitude": -37.8364908,
   "longitude": 77.5541729591024,
   "formattedAddress": "Île Amsterdam, Îles Saint-Paul et Nouvelle-Amsterdam, Terres australes et antarctiques françaises, France",
   "country": "France",
   "countryCode": "FR",
   "neighbourhood": "",
   "provider": "openstreetmap"
  },
  {
   "latitude": 52.37454030000001,
   "longitude": 4.897975505617977,
   "formattedAddress": "Amsterdam, Noord-Holland, Nederland",
   "country": "Nederland",
   "state": "Noord-Holland",
   "countryCode": "NL",
   "neighbourhood": "",
   "provider": "openstreetmap"
  },
  {
   "latitude": 42.943367,
   "longitude": -74.1850436,
   "formattedAddress": "City of Amsterdam, Montgomery County, New York, 12010, United States",
   "country": "United States",
   "city": "City of Amsterdam",
   "state": "New York",
   "zipcode": "12010",
   "countryCode": "US",
   "neighbourhood": "",
   "provider": "openstreetmap"
  },
  {
   "latitude": 52.37197895,
   "longitude": 4.884726800042784,
   "formattedAddress": "Grachtengordel van Amsterdam, Amsterdam, Noord-Holland, Nederland",
   "country": "Nederland",
   "city": "Amsterdam",
   "state": "Noord-Holland",
   "countryCode": "NL",
   "neighbourhood": "",
   "provider": "openstreetmap"
  },
  {
   "latitude": 38.3497423,
   "longitude": -94.5891216,
   "formattedAddress": "Amsterdam, Bates County, Missouri, United States",
   "country": "United States",
   "city": "Amsterdam",
   "state": "Missouri",
   "countryCode": "US",
   "neighbourhood": "",
   "provider": "openstreetmap"
  },
  {
   "latitude": 40.4736758,
   "longitude": -80.9228671,
   "formattedAddress": "Amsterdam, Jefferson County, Ohio, United States",
   "country": "United States",
   "city": "Amsterdam",
   "state": "Ohio",
   "countryCode": "US",
   "neighbourhood": "",
   "provider": "openstreetmap"
  },
  {
   "latitude": 37.4302157,
   "longitude": -120.5421392,
   "formattedAddress": "Amsterdam, Merced County, California, United States",
   "country": "United States",
   "city": "Amsterdam",
   "state": "California",
   "countryCode": "US",
   "neighbourhood": "",
   "provider": "openstreetmap"
  },
  {
   "latitude": 40.5876009,
   "longitude": -75.1585076,
   "formattedAddress": "Amsterdam, Holland Township, Hunterdon County, New Jersey, United States",
   "country": "United States",
   "city": "Amsterdam",
   "state": "New Jersey",
   "countryCode": "US",
   "neighbourhood": "",
   "provider": "openstreetmap"
  },
  {
   "latitude": 52.37233395,
   "longitude": 4.914231749531422,
   "formattedAddress": "\"Amsterdam\", Prins Hendrikkade, Oostelijke Eilanden, Centrum, Amsterdam, Noord-Holland, Nederland, 1018AA, Nederland",
   "country": "Nederland",
   "city": "Amsterdam",
   "state": "Noord-Holland",
   "zipcode": "1018AA",
   "streetName": "Prins Hendrikkade",
   "countryCode": "NL",
   "neighbourhood": "",
   "provider": "openstreetmap"
  }
 ],
 "London, UK": [
  {
   "latitude": 51.5073219,
   "longitude": -0.1276474,
   "formattedAddress": "London, City of Westminster, Greater London, England, United Kingdom",
   "country": "United Kingdom",
   "city": "London",
   "state": "England",
   "countryCode": "GB",
   "neighbourhood": "",
   "provider": "openstreetmap"
  },
  {
   "latitude": 51.515053699999996,
   "longitude": -0.09311889867661148,
   "formattedAddress": "City of London, England, United Kingdom",
   "country": "United Kingdom",
   "state": "England",
   "countryCode": "GB",
   "neighbourhood": "",
   "provider": "openstreetmap"
  },
  {
   "latitude": 51.50888405,
   "longitude": -0.1283741501862351,
   "formattedAddress": "National Gallery, St Martin's Street, Seven Dials, Covent Garden, London, City of Westminster, Greater London, England, WC2N 5DN, United Kingdom",
   "country": "United Kingdom",
   "city": "London",
   "state": "England",
   "zipcode": "WC2N 5DN",
   "streetName": "St Martin's Street",
   "countryCode": "GB",
   "neighbourhood": "Seven Dials",
   "provider": "openstreetmap"
  },
  {
   "latitude": 51.5074889,
   "longitude": -0.16223668308067218,
   "formattedAddress": "Hyde Park, Bayswater Road, Paddington, London, City of Westminster, Greater London, England, W2 2UE, United Kingdom",
   "country": "United Kingdom",
   "city": "London",
   "state": "England",
   "zipcode": "W2 2UE",
   "streetName": "Bayswater Road",
   "countryCode": "GB",
   "neighbourhood": "",
   "provider": "openstreetmap"
  },
  {
   "latitude": 51.4875167,
   "longitude": -0.1687007,
   "formattedAddress": "Chelsea, Kensington, Royal Borough of Kensington and Chelsea, Greater London, England, SW3 5UA, United Kingdom",
   "country": "United Kingdom",
   "city": "Royal Borough of Kensington and Chelsea",
   "state": "England",
   "zipcode": "SW3 5UA",
   "countryCode": "GB",
   "neighbourhood": "",
   "provider": "openstreetmap"
  },
  {
   "latitude": 51.4874834,
   "longitude": -0.1229297,
   "formattedAddress": "Vauxhall, Clapham, London Borough of Lambeth, Greater London, England, SE11 5AW, United Kingdom",
   "country": "United Kingdom",
   "city": "London Borough of Lambeth",
   "state": "England",
   "zipcode": "SE11 5AW",
   "countryCode": "GB",
   "neighbourhood": "",
   "provider": "openstreetmap"
  },
  {
   "latitude": 51.51419575,
   "longitude": -0.11347677488453559,
   "formattedAddress": "Royal Courts of Justice, Strand, St Clement Danes, Holborn, London, City of Westminster, Greater London, England, WC2A 2LL, United Kingdom",
   "country": "United Kingdom",
   "city": "London",
   "state": "England",
   "zipcode": "WC2A 2LL",
   "streetName": "Strand",
   "countryCode": "GB",
   "neighbourhood": "St Clement Danes",
   "provider": "openstreetmap"
  },
  {
   "latitude": 51.5034813,
   "longitude": -0.1517488185897429,
   "formattedAddress": "Apsley House, 149, Piccadilly, Hans Town, Belgravia, London, City of Westminster, Greater London, England, W1J 7NT, United Kingdom",
   "country": "United Kingdom",
   "city": "London",
   "state": "England",
   "zipcode": "W1J 7NT",
   "streetName": "Piccadilly",
   "streetNumber": "149",
   "countryCode": "GB",
   "neighbourhood": "Hans Town",
   "provider": "openstreetmap"
  },
  {
   "latitude": 51.51848505,
   "longitude": -0.1469846515632438,
   "formattedAddress": "Queen's College, London, 43-49, Harley Street, East Marylebone, Mayfair, London, City of Westminster, Greater London, England, W1G 9QY, United Kingdom",
   "country": "United Kingdom",
   "city": "London",
   "state": "England",
   "zipcode": "W1G 9QY",
   "streetName": "Harley Street",
   "streetNumber": "43-49",
   "countryCode": "GB",
   "neighbourhood": "",
   "provider": "openstreetmap"
  },
  {
   "latitude": 51.5127794,
   "longitude": -0.11905006689937492,
   "formattedAddress": "The Waldorf Hilton, London, Aldwych, St Clement Danes, Covent Garden, London, City of Westminster, Greater London, England, WC2B 4DD, United Kingdom",
   "country": "United Kingdom",
   "city": "London",
   "state": "England",
   "zipcode": "WC2B 4DD",
   "streetName": "Aldwych",
   "countryCode": "GB",
   "neighbourhood": "St Clement Danes",
   "provider": "openstreetmap"
  }
 ],
 "Barcelona, Spain": [
  {
   "latitude": 41.3828939,
   "longitude": 2.1774322,
   "formattedAddress": "Barcelona, Barcelonès, Barcelona, Catalunya, 08001, España",
   "country": "España",
   "city": "Barcelona",
   "state": "Catalunya",
   "zipcode": "08001",
   "countryCode": "ES",
   "neighbourhood": "",
   "provider": "openstreetmap"
  },
  {
   "latitude": 41.75786995,
   "longitude": 2.031182036159852,
   "formattedAddress": "Barcelona, Catalunya, España",
   "country": "España",
   "state": "Catalunya",
   "countryCode": "ES",
   "neighbourhood": "",
   "provider": "openstreetmap"
  },
  {
   "latitude": 39.549399550000004,
   "longitude": 2.5916274007000912,
   "formattedAddress": "Barcelona, Cas Català, Calvià, Serra de Tramuntana, Illes Balears, España",
   "country": "España",
   "state": "Illes Balears",
   "countryCode": "ES",
   "neighbourhood": "",
   "provider": "openstreetmap"
  },
  {
   "latitude": 41.4403843,
   "longitude": -4.5525503,
   "formattedAddress": "Barcelona, Portillo, Valladolid, Castilla y León, España",
   "country": "España",
   "city": "Portillo",
   "state": "Castilla y León",
   "countryCode": "ES",
   "neighbourhood": "",
   "provider": "openstreetmap"
  },
  {
   "latitude": 38.85591,
   "longitude": -1.6450904,
   "formattedAddress": "Barcelona, Chinchilla de Monte-Aragón, Albacete, Castilla-La Mancha, España",
   "country": "España",
   "city": "Chinchilla de Monte-Aragón",
   "state": "Castilla-La Mancha",
   "countryCode": "ES",
   "neighbourhood": "",
   "provider": "openstreetmap"
  },
  {
   "latitude": 39.6998215,
   "longitude": 2.6978818,
   "formattedAddress": "Barcelona, Bunyola, Serra de Tramuntana, Illes Balears, 07110, España",
   "country": "España",
   "city": "Bunyola",
   "state": "Illes Balears",
   "zipcode": "07110",
   "countryCode": "ES",
   "neighbourhood": "",
   "provider": "openstreetmap"
  },
  {
   "latitude": 37.7061762,
   "longitude": -2.9351876,
   "formattedAddress": "Barcelona, Pozo Alcón, Jaén, Andalucía, 23485, España",
   "country": "España",
   "city": "Pozo Alcón",
   "state": "Andalucía",
   "zipcode": "23485",
   "streetName": "Barcelona",
   "countryCode": "ES",
   "neighbourhood": "",
   "provider": "openstreetmap"
  },
  {
   "latitude": 41.3825528,
   "longitude": 2.1661752,
   "formattedAddress": "Barcelona, mural G-333, Plaça dels Àngels, el Raval, Ciutat Vella, Barcelonès, Barcelona, Catalunya, 08001, España",
   "country": "España",
   "state": "Catalunya",
   "zipcode": "08001",
   "streetName": "Plaça dels Àngels",
   "countryCode": "ES",
   "neighbourhood": "el Raval",
   "provider": "openstreetmap"
  },
  {
   "latitude": 41.398694,
   "longitude": 2.1782798,
   "formattedAddress": "Barcelona, 406, Carrer de la Diputació, el Fort Pienc, Barcelona, Barcelonès, Barcelona, Catalunya, 08013, España",
   "country": "España",
   "city": "Barcelona",
   "state": "Catalunya",
   "zipcode": "08013",
   "streetName": "Carrer de la Diputació",
   "streetNumber": "406",
   "countryCode": "ES",
   "neighbourhood": "el Fort Pienc",
   "provider": "openstreetmap"
  },
  {
   "latitude": 41.4104479,
   "longitude": 2.1584852,
   "formattedAddress": "Barcelona, 168, Carrer de l'Escorial, Gràcia Nova, el Camp d'en Grassot i Gràcia Nova, Gràcia, Barcelona, Barcelonès, Barcelona, Catalunya, 08001, España",
   "country": "España",
   "city": "Barcelona",
   "state": "Catalunya",
   "zipcode": "08001",
   "streetName": "Carrer de l'Escorial",
   "streetNumber": "168",
   "countryCode": "ES",
   "neighbourhood": "Gràcia Nova",
   "provider": "openstreetmap"
  }
 ],
 "Paris, France": [
  {
   "latitude": 48.8588897,
   "longitude": 2.3200410217200766,
   "formattedAddress": "Paris, Île-de-France, France métropolitaine, France",
   "country": "France",
   "state": "Île-de-France",
   "countryCode": "FR",
   "neighbourhood": "",
   "provider": "openstreetmap"
  },
  {
   "latitude": 48.8534951,
   "longitude": 2.3483915,
   "formattedAddress": "Paris, Île-de-France, France métropolitaine, 75000, France",
   "country": "France",
   "city": "Paris",
   "state": "Île-de-France",
   "zipcode": "75000",
   "countryCode": "FR",
   "neighbourhood": "",
   "provider": "openstreetmap"
  },
  {
   "latitude": 48.8588897,
   "longitude": 2.3200410217200766,
   "formattedAddress": "Paris, Île-de-France, France métropolitaine, France",
   "country": "France",
   "state": "Île-de-France",
   "countryCode": "FR",
   "neighbourhood": "",
   "provider": "openstreetmap"
  },
  {
   "latitude": 48.8588897,
   "longitude": 2.3200410217200766,
   "formattedAddress": "Paris, Île-de-France, France métropolitaine, France",
   "country": "France",
   "state": "Île-de-France",
   "countryCode": "FR",
   "neighbourhood": "",
   "provider": "openstreetmap"
  },
  {
   "latitude": 44.6370913,
   "longitude": 0.77482,
   "formattedAddress": "Parisot, Villeneuve-sur-Lot, Lot-et-Garonne, Nouvelle-Aquitaine, France métropolitaine, 47210, France",
   "country": "France",
   "city": "Parisot",
   "state": "Nouvelle-Aquitaine",
   "zipcode": "47210",
   "countryCode": "FR",
   "neighbourhood": "",
   "provider": "openstreetmap"
  },
  {
   "latitude": 44.5626798,
   "longitude": -0.865783,
   "formattedAddress": "Paris, Salles, Arcachon, Gironde, Nouvelle-Aquitaine, France métropolitaine, 33770, France",
   "country": "France",
   "city": "Salles",
   "state": "Nouvelle-Aquitaine",
   "zipcode": "33770",
   "countryCode": "FR",
   "neighbourhood": "",
   "provider": "openstreetmap"
  },
  {
   "latitude": 44.491379,
   "longitude": 0.3940874,
   "formattedAddress": "Paris, Labretonie, Marmande, Lot-et-Garonne, Nouvelle-Aquitaine, France métropolitaine, 47350, France",
   "country": "France",
   "city": "Labretonie",
   "state": "Nouvelle-Aquitaine",
   "zipcode": "47350",
   "countryCode": "FR",
   "neighbourhood": "",
   "provider": "openstreetmap"
  },
  {
   "latitude": 43.8287799,
   "longitude": 5.4270482,
   "formattedAddress": "Paris, Sivergues, Apt, Vaucluse, Provence-Alpes-Côte d'Azur, France métropolitaine, 84400, France",
   "country": "France",
   "city": "Sivergues",
   "state": "Provence-Alpes-Côte d'Azur",
   "zipcode": "84400",
   "countryCode": "FR",
   "neighbourhood": "",
   "provider": "openstreetmap"
  },
  {
   "latitude": 46.540641,
   "longitude": 4.5407089,
   "formattedAddress": "Paris, Passy, Mâcon, Saône-et-Loire, Bourgogne-Franche-Comté, France métropolitaine, 71220, France",
   "country": "France",
   "city": "Passy",
   "state": "Bourgogne-Franche-Comté",
   "zipcode": "71220",
   "countryCode": "FR",
   "neighbourhood": "",
   "provider": "openstreetmap"
  },
  {
   "latitude": 43.5685538,
   "longitude": 0.4776069,
   "formattedAddress": "Paris, Miramont-d'Astarac, Mirande, Gers, Occitanie, France métropolitaine, 32300, France",
   "country": "France",
   "city": "Miramont-d'Astarac",
   "state": "Occitanie",
   "zipcode": "32300",
   "countryCode": "FR",
   "neighbourhood": "",
   "provider": "openstreetmap"
  }
 ],
 "San Francisco, CA, USA": [
  {
   "latitude": 37.7790262,
   "longitude": -122.419906,
   "formattedAddress": "San Francisco, California, United States",
   "country": "United States",
   "city": "San Francisco",
   "state": "California",
   "countryCode": "US",
   "neighbourhood": "",
   "provider": "openstreetmap"
  },
  {
   "latitude": 37.7627382,
   "longitude": -122.45827408207481,
   "formattedAddress": "University of California, San Francisco, Arguello Boulevard, Cole Valley, San Francisco, California, 94117, United States",
   "country": "United States",
   "city": "San Francisco",
   "state": "California",
   "zipcode": "94117",
   "streetName": "Arguello Boulevard",
   "countryCode": "US",
   "neighbourhood": "Cole Valley",
   "provider": "openstreetmap"
  },
  {
   "latitude": 37.78683135,
   "longitude": -122.39568015971261,
   "formattedAddress": "Consulate General of Mexico, San Francisco, 532, Folsom Street, Transbay, San Francisco, California, 94105, United States",
   "country": "United States",
   "city": "San Francisco",
   "state": "California",
   "zipcode": "94105",
   "streetName": "Folsom Street",
   "streetNumber": "532",
   "countryCode": "US",
   "neighbourhood": "Transbay",
   "provider": "openstreetmap"
  },
  {
   "latitude": 37.7952811,
   "longitude": -122.40076294929506,
   "formattedAddress": "Club Quarters Hotel, San Francisco, Embarcadero, 424, Clay Street, Financial District, San Francisco, California, 94111, United States",
   "country": "United States",
   "city": "San Francisco",
   "state": "California",
   "zipcode": "94111",
   "streetName": "Clay Street",
   "streetNumber": "424",
   "countryCode": "US",
   "neighbourhood": "Financial District",
   "provider": "openstreetmap"
  },
  {
   "latitude": 37.78467975,
   "longitude": -122.42771684276475,
   "formattedAddress": "Consulate General of People's Republic of China, 1450, Laguna Street, Western Addition, San Francisco, California, 94115, United States",
   "country": "United States",
   "city": "San Francisco",
   "state": "California",
   "zipcode": "94115",
   "streetName": "Laguna Street",
   "streetNumber": "1450",
   "countryCode": "US",
   "neighbourhood": "Western Addition",
   "provider": "openstreetmap"
  },
  {
   "latitude": 37.7765434,
   "longitude": -122.39483656240876,
   "formattedAddress": "San Francisco 4th & King Street, Townsend Street, South Beach, San Francisco, California, 94017, United States",
   "country": "United States",
   "city": "San Francisco",
   "state": "California",
   "zipcode": "94017",
   "streetName": "Townsend Street",
   "countryCode": "US",
   "neighbourhood": "South Beach",
   "provider": "openstreetmap"
  },
  {
   "latitude": 37.7805065,
   "longitude": -122.45846896569714,
   "formattedAddress": "Consulate General of India, San Francisco, 540, Arguello Boulevard, Jordan Park, San Francisco, California, 94118, United States",
   "country": "United States",
   "city": "San Francisco",
   "state": "California",
   "zipcode": "94118",
   "streetName": "Arguello Boulevard",
   "streetNumber": "540",
   "countryCode": "US",
   "neighbourhood": "Jordan Park",
   "provider": "openstreetmap"
  },
  {
   "latitude": 37.7751131,
   "longitude": -122.3974209,
   "formattedAddress": "San Francisco (5th/Townsend), Townsend Street, South Beach, San Francisco, California, 94017, United States",
   "country": "United States",
   "city": "San Francisco",
   "state": "California",
   "zipcode": "94017",
   "streetName": "Townsend Street",
   "countryCode": "US",
   "neighbourhood": "South Beach",
   "provider": "openstreetmap"
  }
 ],
 "Oslo, Norway": [
  {
   "latitude": 59.9133301,
   "longitude": 10.7389701,
   "formattedAddress": "Oslo, Norge",
   "country": "Norge",
   "city": "Oslo",
   "countryCode": "NO",
   "neighbourhood": "",
   "provider": "openstreetmap"
  },
  {
   "latitude": 59.9110251,
   "longitude": 10.7531379,
   "formattedAddress": "Oslo, Main Station Hallway, Sjøtomta, Sentrum, Oslo, 0050, Norge",
   "country": "Norge",
   "city": "Oslo",
   "zipcode": "0050",
   "streetName": "Main Station Hallway",
   "countryCode": "NO",
   "neighbourhood": "Sjøtomta",
   "provider": "openstreetmap"
  },
  {
   "latitude": 59.97239745,
   "longitude": 10.775729194051895,
   "formattedAddress": "Oslo, Norge",
   "country": "Norge",
   "city": "Oslo",
   "countryCode": "NO",
   "neighbourhood": "",
   "provider": "openstreetmap"
  },
  {
   "latitude": 59.91240965,
   "longitude": 10.755942944443662,
   "formattedAddress": "Radisson Blu Plaza Hotel, Oslo, 162;Ring 1, Vaterland, Sentrum, Oslo, 0185, Norge",
   "country": "Norge",
   "city": "Oslo",
   "zipcode": "0185",
   "streetName": "162;Ring 1",
   "countryCode": "NO",
   "neighbourhood": "",
   "provider": "openstreetmap"
  },
  {
   "latitude": 59.91682955,
   "longitude": 10.705480253181825,
   "formattedAddress": "American Lutheran Church, Oslo, Gimle terrasse, Frogner, Oslo, 0264, Norge",
   "country": "Norge",
   "city": "Oslo",
   "zipcode": "0264",
   "streetName": "Gimle terrasse",
   "countryCode": "NO",
   "neighbourhood": "",
   "provider": "openstreetmap"
  },
  {
   "latitude": 59.9184458,
   "longitude": 10.7341083,
   "formattedAddress": "Radisson Blu Scandinavia Hotel, Oslo, 30, Holbergs gate, Tullin, Sentrum, Oslo, 0166, Norge",
   "country": "Norge",
   "city": "Oslo",
   "zipcode": "0166",
   "streetName": "Holbergs gate",
   "streetNumber": "30",
   "countryCode": "NO",
   "neighbourhood": "Tullin",
   "provider": "openstreetmap"
  },
  {
   "latitude": 59.9107234,
   "longitude": 10.7594661,
   "formattedAddress": "Seksjon for utlendingsforvaltning, Oslo, Østre tangent, Barcode, Gamle Oslo, Oslo, 0134, Norge",
   "country": "Norge",
   "city": "Oslo",
   "zipcode": "0134",
   "streetName": "Østre tangent",
   "countryCode": "NO",
   "neighbourhood": "Barcode",
   "provider": "openstreetmap"
  },
  {
   "latitude": 59.9283355,
   "longitude": 10.8516679,
   "formattedAddress": "Tesla Service Center, Oslo, Verkseier Furulunds vei, Stubberud, Alna, Oslo, 0668, Norge",
   "country": "Norge",
   "city": "Oslo",
   "zipcode": "0668",
   "streetName": "Verkseier Furulunds vei",
   "countryCode": "NO",
   "neighbourhood": "",
   "provider": "openstreetmap"
  },
  {
   "latitude": 59.9394201,
   "longitude": 10.8296723,
   "formattedAddress": "Thon hotel Linne, Oslo, Statsråd Mathiesens vei, Øvre Vollebekk, Bjerke, Oslo, 0598, Norge",
   "country": "Norge",
   "city": "Oslo",
   "zipcode": "0598",
   "streetName": "Statsråd Mathiesens vei",
   "countryCode": "NO",
   "neighbourhood": "Øvre Vollebekk",
   "provider": "openstreetmap"
  },
  {
   "latitude": 59.9292975,
   "longitude": 10.7923543,
   "formattedAddress": "Q-Park Lørenlunden, Bøkkerveien, Grünerløkka, Oslo, 0579, Norge",
   "country": "Norge",
   "city": "Oslo",
   "zipcode": "0579",
   "streetName": "Bøkkerveien",
   "countryCode": "NO",
   "neighbourhood": "",
   "provider": "openstreetmap"
  }
 ],
 "Edinburgh": [
  {
   "latitude": 55.9533456,
   "longitude": -3.1883749,
   "formattedAddress": "Edinburgh, City of Edinburgh, Alba / Scotland, EH1 3EG, United Kingdom",
   "country": "United Kingdom",
   "city": "Edinburgh",
   "state": "Alba / Scotland",
   "zipcode": "EH1 3EG",
   "countryCode": "GB",
   "neighbourhood": "",
   "provider": "openstreetmap"
  },
  {
   "latitude": 55.9519018,
   "longitude": -3.1904199,
   "formattedAddress": "Edinburgh Waverley, South Ramp, Old Town, Edinburgh, City of Edinburgh, Alba / Scotland, EH1 1BE, United Kingdom",
   "country": "United Kingdom",
   "city": "Edinburgh",
   "state": "Alba / Scotland",
   "zipcode": "EH1 1BE",
   "streetName": "South Ramp",
   "countryCode": "GB",
   "neighbourhood": "",
   "provider": "openstreetmap"
  },
  {
   "latitude": 55.9495699,
   "longitude": -3.1914536,
   "formattedAddress": "Old Town, Edinburgh, City of Edinburgh, Alba / Scotland, EH1 1PW, United Kingdom",
   "country": "United Kingdom",
   "city": "Edinburgh",
   "state": "Alba / Scotland",
   "zipcode": "EH1 1PW",
   "countryCode": "GB",
   "neighbourhood": "",
   "provider": "openstreetmap"
  },
  {
   "latitude": 39.3542176,
   "longitude": -85.9666577,
   "formattedAddress": "Edinburgh, Johnson County, Indiana, 46124, United States",
   "country": "United States",
   "city": "Edinburgh",
   "state": "Indiana",
   "zipcode": "46124",
   "countryCode": "US",
   "neighbourhood": "",
   "provider": "openstreetmap"
  },
  {
   "latitude": 39.350982,
   "longitude": -85.96196318121507,
   "formattedAddress": "Edinburgh, Johnson County, Indiana, United States",
   "country": "United States",
   "city": "Edinburgh",
   "state": "Indiana",
   "countryCode": "US",
   "neighbourhood": "",
   "provider": "openstreetmap"
  },
  {
   "latitude": 55.9228827,
   "longitude": -3.188193736550935,
   "formattedAddress": "Royal Observatory, Edinburgh, Blackford Hill View, Blackford Hill, Blackford, City of Edinburgh, Alba / Scotland, EH9 3HJ, United Kingdom",
   "country": "United Kingdom",
   "state": "Alba / Scotland",
   "zipcode": "EH9 3HJ",
   "streetName": "Blackford Hill View",
   "countryCode": "GB",
   "neighbourhood": "Blackford Hill",
   "provider": "openstreetmap"
  },
  {
   "latitude": 71.7266667,
   "longitude": -25.2333333,
   "formattedAddress": "Edinburgh, Kalaallit Nunaat",
   "country": "Kalaallit Nunaat",
   "countryCode": "GL",
   "neighbourhood": "",
   "provider": "openstreetmap"
  },
  {
   "latitude": -34.7191379,
   "longitude": 138.6350042,
   "formattedAddress": "Edinburgh, Adelaide, City of Salisbury, South Australia, 5111, Australia",
   "country": "Australia",
   "city": "Adelaide",
   "state": "South Australia",
   "zipcode": "5111",
   "countryCode": "AU",
   "neighbourhood": "",
   "provider": "openstreetmap"
  },
  {
   "latitude": 40.7553341,
   "longitude": -81.8440264,
   "formattedAddress": "Edinburgh, Apple Creek, Wayne County, Ohio, 44606, United States",
   "country": "United States",
   "city": "Apple Creek",
   "state": "Ohio",
   "zipcode": "44606",
   "countryCode": "US",
   "neighbourhood": "",
   "provider": "openstreetmap"
  },
  {
   "latitude": 34.9057191,
   "longitude": -79.3100377,
   "formattedAddress": "Edinburgh, Hoke County, North Carolina, United States",
   "country": "United States",
   "city": "Edinburgh",
   "state": "North Carolina",
   "countryCode": "US",
   "neighbourhood": "",
   "provider": "openstreetmap"
  }
 ],
 "Antwerp, Belgium": [
  {
   "latitude": 51.2211097,
   "longitude": 4.3997081,
   "formattedAddress": "Antwerpen, Vlaanderen, 2000, België / Belgique / Belgien",
   "country": "België / Belgique / Belgien",
   "city": "Antwerpen",
   "state": "Antwerpen",
   "zipcode": "2000",
   "countryCode": "BE",
   "neighbourhood": "",
   "provider": "openstreetmap"
  },
  {
   "latitude": 51.2602708,
   "longitude": 4.382181448976495,
   "formattedAddress": "Antwerpen, Vlaanderen, België / Belgique / Belgien",
   "country": "België / Belgique / Belgien",
   "state": "Antwerpen",
   "countryCode": "BE",
   "neighbourhood": "",
   "provider": "openstreetmap"
  },
  {
   "latitude": 51.248473450000006,
   "longitude": 4.757383719371841,
   "formattedAddress": "Antwerpen, Vlaanderen, België / Belgique / Belgien",
   "country": "België / Belgique / Belgien",
   "state": "Antwerpen",
   "countryCode": "BE",
   "neighbourhood": "",
   "provider": "openstreetmap"
  },
  {
   "latitude": 51.277046549999994,
   "longitude": 4.544517182331758,
   "formattedAddress": "Antwerpen, Vlaanderen, België / Belgique / Belgien",
   "country": "België / Belgique / Belgien",
   "state": "Antwerpen",
   "countryCode": "BE",
   "neighbourhood": "",
   "provider": "openstreetmap"
  },
  {
   "latitude": 51.2452978,
   "longitude": 4.382442306343581,
   "formattedAddress": "Antwerpen, Vlaanderen, België / Belgique / Belgien",
   "country": "België / Belgique / Belgien",
   "city": "Antwerpen",
   "state": "Antwerpen",
   "countryCode": "BE",
   "neighbourhood": "",
   "provider": "openstreetmap"
  }
 ],
 "Minsk, Belarus": [
  {
   "latitude": 53.9024716,
   "longitude": 27.5618225,
   "formattedAddress": "Минск, Беларусь",
   "country": "Беларусь",
   "city": "Минск",
   "countryCode": "BY",
   "neighbourhood": "",
   "provider": "openstreetmap"
  },
  {
   "latitude": 54.0088469,
   "longitude": 27.2838381,
   "formattedAddress": "Беларусь, Вокзальная улица, Заславль, Минский район, Минская область, 223036, Беларусь",
   "country": "Беларусь",
   "city": "Заславль",
   "state": "Минская область",
   "zipcode": "223036",
   "streetName": "Вокзальная улица",
   "countryCode": "BY",
   "neighbourhood": "",
   "provider": "openstreetmap"
  },
  {
   "latitude": 54.0087129,
   "longitude": 27.283517872725707,
   "formattedAddress": "Беларусь, 3, Вокзальная улица, Заславль, Минский район, Минская область, 223036, Беларусь",
   "country": "Беларусь",
   "city": "Заславль",
   "state": "Минская область",
   "zipcode": "223036",
   "streetName": "Вокзальная улица",
   "streetNumber": "3",
   "countryCode": "BY",
   "neighbourhood": "",
   "provider": "openstreetmap"
  },
  {
   "latitude": 53.9267207,
   "longitude": 27.6141813,
   "formattedAddress": "VTA :: VALYN Travel Agency (Belarus, Minsk) & Natalie Tours (Belarus, Minsk), 4, улица Толбухина, Первомайский район, Минск, 220043, Беларусь",
   "country": "Беларусь",
   "city": "Минск",
   "zipcode": "220043",
   "streetName": "улица Толбухина",
   "streetNumber": "4",
   "countryCode": "BY",
   "neighbourhood": "",
   "provider": "openstreetmap"
  },
  {
   "latitude": 53.905005700000004,
   "longitude": 27.542912109063742,
   "formattedAddress": "Беларусь, 28, улица Романовская Слобода, Раковское предместье, Центральный район, Минск, 220004, Беларусь",
   "country": "Беларусь",
   "city": "Минск",
   "zipcode": "220004",
   "streetName": "улица Романовская Слобода",
   "streetNumber": "28",
   "countryCode": "BY",
   "neighbourhood": "Раковское предместье",
   "provider": "openstreetmap"
  },
  {
   "latitude": 53.030151,
   "longitude": 27.3127,
   "formattedAddress": "Беларусь, Знаменский сельский Совет, Слуцкий район, Минская область, Беларусь",
   "country": "Беларусь",
   "city": "Знаменский сельский Совет",
   "state": "Минская область",
   "countryCode": "BY",
   "neighbourhood": "",
   "provider": "openstreetmap"
  },
  {
   "latitude": 53.9153998,
   "longitude": 27.5501565,
   "formattedAddress": "Беларусь, 15, Сторожовская улица, Старостинская Слобода, Центральный район, Минск, 220002, Беларусь",
   "country": "Беларусь",
   "city": "Минск",
   "zipcode": "220002",
   "streetName": "Сторожовская улица",
   "streetNumber": "15",
   "countryCode": "BY",
   "neighbourhood": "Старостинская Слобода",
   "provider": "openstreetmap"
  },
  {
   "latitude": 53.8966111,
   "longitude": 27.5503887,
   "formattedAddress": "Минск, Площадь Независимости, Московский район, Минск, 721816, Беларусь",
   "country": "Беларусь",
   "city": "Минск",
   "zipcode": "721816",
   "streetName": "Площадь Независимости",
   "countryCode": "BY",
   "neighbourhood": "",
   "provider": "openstreetmap"
  },
  {
   "latitude": 53.8969066,
   "longitude": 27.5509108,
   "formattedAddress": "Минск, 11, проспект Независимости, Романовская Слобода, Московский район, Минск, 220030, Беларусь",
   "country": "Беларусь",
   "city": "Минск",
   "zipcode": "220030",
   "streetName": "проспект Независимости",
   "streetNumber": "11",
   "countryCode": "BY",
   "neighbourhood": "Романовская Слобода",
   "provider": "openstreetmap"
  },
  {
   "latitude": 53.897091,
   "longitude": 27.551203882653972,
   "formattedAddress": "Минск, 11, проспект Независимости, Ленинский район, Минск, 220030, Беларусь",
   "country": "Беларусь",
   "city": "Минск",
   "zipcode": "220030",
   "streetName": "проспект Независимости",
   "streetNumber": "11",
   "countryCode": "BY",
   "neighbourhood": "",
   "provider": "openstreetmap"
  }
 ],
 "Malmö, Sweden": [
  {
   "latitude": 55.6052931,
   "longitude": 13.0001566,
   "formattedAddress": "Malmö, Malmö kommun, Skåne län, Sverige",
   "country": "Sverige",
   "city": "Malmö",
   "countryCode": "SE",
   "neighbourhood": "",
   "provider": "openstreetmap"
  },
  {
   "latitude": 55.58018355,
   "longitude": 12.979699908090481,
   "formattedAddress": "Malmö kommun, Skåne län, Sverige",
   "country": "Sverige",
   "countryCode": "SE",
   "neighbourhood": "",
   "provider": "openstreetmap"
  },
  {
   "latitude": 56.701785799999996,
   "longitude": 14.190995526734431,
   "formattedAddress": "Malmö, Åshuvud, Ljungby kommun, Kronobergs län, Sverige",
   "country": "Sverige",
   "city": "Åshuvud",
   "countryCode": "SE",
   "neighbourhood": "",
   "provider": "openstreetmap"
  },
  {
   "latitude": 56.754515999999995,
   "longitude": 15.130697304882187,
   "formattedAddress": "Malmö, Lessebo kommun, Kronobergs län, Sverige",
   "country": "Sverige",
   "countryCode": "SE",
   "neighbourhood": "",
   "provider": "openstreetmap"
  },
  {
   "latitude": 58.8571426,
   "longitude": 16.5247587,
   "formattedAddress": "Malmö, Katrineholms kommun, Södermanlands län, 640 20, Sverige",
   "country": "Sverige",
   "zipcode": "640 20",
   "countryCode": "SE",
   "neighbourhood": "",
   "provider": "openstreetmap"
  },
  {
   "latitude": 56.80849065,
   "longitude": 13.73921109019586,
   "formattedAddress": "Malmö, Djurarp, Ljungby kommun, Kronobergs län, Sverige",
   "country": "Sverige",
   "city": "Djurarp",
   "countryCode": "SE",
   "neighbourhood": "",
   "provider": "openstreetmap"
  },
  {
   "latitude": 58.6431438,
   "longitude": 16.2468695,
   "formattedAddress": "Malmö, Kvillinge församling, Norrköpings kommun, Östergötlands län, 616 90, Sverige",
   "country": "Sverige",
   "zipcode": "616 90",
   "countryCode": "SE",
   "neighbourhood": "",
   "provider": "openstreetmap"
  },
  {
   "latitude": 55.6075779,
   "longitude": 13.0393564,
   "formattedAddress": "Galleri Olson, Malmö, Södra Bulltoftavägen, Kirsebergsstaden, Norr, Malmö, Malmö kommun, Skåne län, 212 22, Sverige",
   "country": "Sverige",
   "city": "Malmö",
   "zipcode": "212 22",
   "streetName": "Södra Bulltoftavägen",
   "countryCode": "SE",
   "neighbourhood": "",
   "provider": "openstreetmap"
  },
  {
   "latitude": 55.61283385,
   "longitude": 12.985880173023077,
   "formattedAddress": "ublox, Malmo, Södra Stapelgränd, Gängtappen, Västra Hamnen, Norr, Malmö, Malmö kommun, Skåne län, 211 19, Sverige",
   "country": "Sverige",
   "city": "Malmö",
   "zipcode": "211 19",
   "streetName": "Södra Stapelgränd",
   "countryCode": "SE",
   "neighbourhood": "",
   "provider": "openstreetmap"
  },
  {
   "latitude": 56.3844049,
   "longitude": 13.1091229,
   "formattedAddress": "Malmö, N 505, Bondåkra, Laholms kommun, Hallands län, Sverige",
   "country": "Sverige",
   "city": "Bondåkra",
   "streetName": "N 505",
   "countryCode": "SE",
   "neighbourhood": "",
   "provider": "openstreetmap"
  }
 ],
 "Warsaw, Poland": [
  {
   "latitude": 52.2319581,
   "longitude": 21.0067249,
   "formattedAddress": "Warszawa, województwo mazowieckie, Polska",
   "country": "Polska",
   "city": "Warszawa",
   "state": "województwo mazowieckie",
   "countryCode": "PL",
   "neighbourhood": "",
   "provider": "openstreetmap"
  },
  {
   "latitude": 52.2337172,
   "longitude": 21.071432235636493,
   "formattedAddress": "Warszawa, województwo mazowieckie, Polska",
   "country": "Polska",
   "state": "województwo mazowieckie",
   "countryCode": "PL",
   "neighbourhood": "",
   "provider": "openstreetmap"
  },
  {
   "latitude": 52.2337172,
   "longitude": 21.071432235636493,
   "formattedAddress": "Warszawa, województwo mazowieckie, Polska",
   "country": "Polska",
   "city": "Warszawa",
   "state": "województwo mazowieckie",
   "countryCode": "PL",
   "neighbourhood": "",
   "provider": "openstreetmap"
  },
  {
   "latitude": 52.1539668,
   "longitude": 20.99560502454388,
   "formattedAddress": "Warsaw, 12, Osmańska, Zielony Ursynów, Wyczółki, Ursynów, Warszawa, województwo mazowieckie, 02-823, Polska",
   "country": "Polska",
   "city": "Warszawa",
   "state": "województwo mazowieckie",
   "zipcode": "02-823",
   "streetName": "Osmańska",
   "streetNumber": "12",
   "countryCode": "PL",
   "neighbourhood": "",
   "provider": "openstreetmap"
  },
  {
   "latitude": 52.2496177,
   "longitude": 21.0107186,
   "formattedAddress": "WarSaw, Wąski Dunaj, Stare Miasto, Śródmieście, Warszawa, województwo mazowieckie, 00-256, Polska",
   "country": "Polska",
   "city": "Warszawa",
   "state": "województwo mazowieckie",
   "zipcode": "00-256",
   "streetName": "Wąski Dunaj",
   "countryCode": "PL",
   "neighbourhood": "",
   "provider": "openstreetmap"
  }
 ],
 "Milan, Italy": [
  {
   "latitude": 45.4641943,
   "longitude": 9.1896346,
   "formattedAddress": "Milano, Lombardia, Italia",
   "country": "Italia",
   "city": "Milano",
   "state": "Lombardia",
   "countryCode": "IT",
   "neighbourhood": "",
   "provider": "openstreetmap"
  },
  {
   "latitude": 45.454211900000004,
   "longitude": 9.111350961779705,
   "formattedAddress": "Milano, Lombardia, Italia",
   "country": "Italia",
   "state": "Lombardia",
   "countryCode": "IT",
   "neighbourhood": "",
   "provider": "openstreetmap"
  },
  {
   "latitude": 46.5811308,
   "longitude": 11.6829574,
   "formattedAddress": "Milan, Urtijëi - St. Ulrich - Ortisei, Urtijëi - St. Ulrich in Gröden - Ortisei, Salten-Schlern - Salto-Sciliar, Bolzano - Bozen, Trentino-Alto Adige/Südtirol, 39046, Italia",
   "country": "Italia",
   "city": "Urtijëi - St. Ulrich in Gröden - Ortisei",
   "state": "Trentino-Alto Adige/Südtirol",
   "zipcode": "39046",
   "countryCode": "IT",
   "neighbourhood": "",
   "provider": "openstreetmap"
  },
  {
   "latitude": 39.28545895,
   "longitude": -76.60023921637884,
   "formattedAddress": "Milan, South Exeter Street, Little Italy, Baltimore, Maryland, 21202, United States",
   "country": "United States",
   "city": "Baltimore",
   "state": "Maryland",
   "zipcode": "21202",
   "streetName": "South Exeter Street",
   "countryCode": "US",
   "neighbourhood": "Little Italy",
   "provider": "openstreetmap"
  },
  {
   "latitude": 45.119697099999996,
   "longitude": 12.322173993468798,
   "formattedAddress": "Milan, 5, Piazza San Giorgio, Rosolina, Rovigo, Veneto, Italia",
   "country": "Italia",
   "city": "Rosolina",
   "state": "Veneto",
   "streetName": "Piazza San Giorgio",
   "streetNumber": "5",
   "countryCode": "IT",
   "neighbourhood": "",
   "provider": "openstreetmap"
  },
  {
   "latitude": 45.463324,
   "longitude": 9.1872694,
   "formattedAddress": "Caffe Vergnano, 3, Via Speronari, Duomo, Municipio 1, Milano, Lombardia, 20122, Italia",
   "country": "Italia",
   "city": "Milano",
   "state": "Lombardia",
   "zipcode": "20122",
   "streetName": "Via Speronari",
   "streetNumber": "3",
   "countryCode": "IT",
   "neighbourhood": "",
   "provider": "openstreetmap"
  }
 ],
 "Copenhagen, Denmark": [
  {
   "latitude": 55.6867243,
   "longitude": 12.5700724,
   "formattedAddress": "København, Region Hovedstaden, 1357, Danmark",
   "country": "Danmark",
   "city": "København",
   "state": "Region Hovedstaden",
   "zipcode": "1357",
   "countryCode": "DK",
   "neighbourhood": "",
   "provider": "openstreetmap"
  },
  {
   "latitude": 43.893439,
   "longitude": -75.673828,
   "formattedAddress": "Copenhagen, Denmark, Lewis County, New York, United States",
   "country": "United States",
   "city": "Copenhagen",
   "state": "New York",
   "countryCode": "US",
   "neighbourhood": "",
   "provider": "openstreetmap"
  },
  {
   "latitude": 55.6729079,
   "longitude": 12.594251897905757,
   "formattedAddress": "Vor Frelsers Kirke, Dronningensgade, Christianshavn, København, Region Hovedstaden, 1416, Danmark",
   "country": "Danmark",
   "city": "København",
   "state": "Region Hovedstaden",
   "zipcode": "1416",
   "streetName": "Dronningensgade",
   "countryCode": "DK",
   "neighbourhood": "",
   "provider": "openstreetmap"
  },
  {
   "latitude": 55.6638769,
   "longitude": 12.5763452,
   "formattedAddress": "Consulate-General of the Republic of Singapore, Copenhagen, Snorresgade, Postbyen, Christianshavn, København, Region Hovedstaden, 1562, Danmark",
   "country": "Danmark",
   "city": "København",
   "state": "Region Hovedstaden",
   "zipcode": "1562",
   "streetName": "Snorresgade",
   "countryCode": "DK",
   "neighbourhood": "Postbyen",
   "provider": "openstreetmap"
  },
  {
   "latitude": 55.6794912,
   "longitude": 12.5742755,
   "formattedAddress": "Embassy of Republic of Macedonia, Denmark, Skindergade, Christianshavn, København, Region Hovedstaden, 1159, Danmark",
   "country": "Danmark",
   "city": "København",
   "state": "Region Hovedstaden",
   "zipcode": "1159",
   "streetName": "Skindergade",
   "countryCode": "DK",
   "neighbourhood": "",
   "provider": "openstreetmap"
  },
  {
   "latitude": 55.723277949999996,
   "longitude": 12.572268646321755,
   "formattedAddress": "Den Sydafrikanske ambassade, Gammel Vartov Vej, Hellerup, København, Region Hovedstaden, 2900, Danmark",
   "country": "Danmark",
   "city": "København",
   "state": "Region Hovedstaden",
   "zipcode": "2900",
   "streetName": "Gammel Vartov Vej",
   "countryCode": "DK",
   "neighbourhood": "",
   "provider": "openstreetmap"
  },
  {
   "latitude": 55.6877969,
   "longitude": 12.5955033,
   "formattedAddress": "Nepals ambassade, Esplanaden, Frederiksstaden, København, Region Hovedstaden, 1263, Danmark",
   "country": "Danmark",
   "city": "København",
   "state": "Region Hovedstaden",
   "zipcode": "1263",
   "streetName": "Esplanaden",
   "countryCode": "DK",
   "neighbourhood": "",
   "provider": "openstreetmap"
  },
  {
   "latitude": 55.73889535,
   "longitude": 12.57097472743234,
   "formattedAddress": "Den Ungarske ambassade, Øregårdsvænget, Hellerup, Gentofte Kommune, Region Hovedstaden, 2900, Danmark",
   "country": "Danmark",
   "state": "Region Hovedstaden",
   "zipcode": "2900",
   "streetName": "Øregårdsvænget",
   "countryCode": "DK",
   "neighbourhood": "",
   "provider": "openstreetmap"
  }
 ],
 "Amsterdam, Netherlands": [
  {
   "latitude": 52.3727598,
   "longitude": 4.8936041,
   "formattedAddress": "Amsterdam, Noord-Holland, Nederland",
   "country": "Nederland",
   "city": "Amsterdam",
   "state": "Noord-Holland",
   "countryCode": "NL",
   "neighbourhood": "",
   "provider": "openstreetmap"
  },
  {
   "latitude": 52.37454030000001,
   "longitude": 4.897975505617977,
   "formattedAddress": "Amsterdam, Noord-Holland, Nederland",
   "country": "Nederland",
   "state": "Noord-Holland",
   "countryCode": "NL",
   "neighbourhood": "",
   "provider": "openstreetmap"
  },
  {
   "latitude": 52.37197895,
   "longitude": 4.884726800042784,
   "formattedAddress": "Grachtengordel van Amsterdam, Amsterdam, Noord-Holland, Nederland",
   "country": "Nederland",
   "city": "Amsterdam",
   "state": "Noord-Holland",
   "countryCode": "NL",
   "neighbourhood": "",
   "provider": "openstreetmap"
  },
  {
   "latitude": 52.37233395,
   "longitude": 4.914231749531422,
   "formattedAddress": "\"Amsterdam\", Prins Hendrikkade, Oostelijke Eilanden, Centrum, Amsterdam, Noord-Holland, Nederland, 1018AA, Nederland",
   "country": "Nederland",
   "city": "Amsterdam",
   "state": "Noord-Holland",
   "zipcode": "1018AA",
   "streetName": "Prins Hendrikkade",
   "countryCode": "NL",
   "neighbourhood": "",
   "provider": "openstreetmap"
  },
  {
   "latitude": 52.30812615,
   "longitude": 4.758460293589845,
   "formattedAddress": "Schiphol, Amsterdam, Schiphol, Haarlemmermeer, Noord-Holland, Nederland, 1118, Nederland",
   "country": "Nederland",
   "city": "Schiphol",
   "state": "Noord-Holland",
   "zipcode": "1118",
   "countryCode": "NL",
   "neighbourhood": "",
   "provider": "openstreetmap"
  },
  {
   "latitude": 52.3187808,
   "longitude": 4.93760415472366,
   "formattedAddress": "Arrondissement Amsterdam, Noord-Holland, Nederland",
   "country": "Nederland",
   "state": "Noord-Holland",
   "countryCode": "NL",
   "neighbourhood": "",
   "provider": "openstreetmap"
  },
  {
   "latitude": 52.71291755,
   "longitude": 4.994906439966625,
   "formattedAddress": "Ressort Amsterdam, Noord-Holland, Nederland",
   "country": "Nederland",
   "state": "Noord-Holland",
   "countryCode": "NL",
   "neighbourhood": "",
   "provider": "openstreetmap"
  },
  {
   "latitude": 52.3738134,
   "longitude": 4.8388301,
   "formattedAddress": "VVA/Spartaan, Amsterdam, 1, Laan van Spartaan, Kolenkitbuurt, Amsterdam, Noord-Holland, Nederland, 1061MA, Nederland",
   "country": "Nederland",
   "city": "Amsterdam",
   "state": "Noord-Holland",
   "zipcode": "1061MA",
   "streetName": "Laan van Spartaan",
   "streetNumber": "1",
   "countryCode": "NL",
   "neighbourhood": "Kolenkitbuurt",
   "provider": "openstreetmap"
  },
  {
   "latitude": 52.3722558,
   "longitude": 4.8949746,
   "formattedAddress": "Amsterdam, Damstraat, Burgwallen-Oude Zijde, Centrum, Amsterdam, Noord-Holland, Nederland, 1012JM, Nederland",
   "country": "Nederland",
   "city": "Amsterdam",
   "state": "Noord-Holland",
   "zipcode": "1012JM",
   "streetName": "Damstraat",
   "countryCode": "NL",
   "neighbourhood": "",
   "provider": "openstreetmap"
  },
  {
   "latitude": 52.3745928,
   "longitude": 4.8954254,
   "formattedAddress": "WebCam.NL - Beurs van Berlage, Amsterdam, 243, Damrak, Centrum, Amsterdam, Noord-Holland, Nederland, 1012ZJ, Nederland",
   "country": "Nederland",
   "city": "Amsterdam",
   "state": "Noord-Holland",
   "zipcode": "1012ZJ",
   "streetName": "Damrak",
   "streetNumber": "243",
   "countryCode": "NL",
   "neighbourhood": "",
   "provider": "openstreetmap"
  }
 ],
 "Coimbra, Portugal": [
  {
   "latitude": 40.2111931,
   "longitude": -8.4294632,
   "formattedAddress": "Coimbra, Portugal",
   "country": "Portugal",
   "city": "Coimbra",
   "countryCode": "PT",
   "neighbourhood": "",
   "provider": "openstreetmap"
  },
  {
   "latitude": 40.22153715,
   "longitude": -8.338105934554843,
   "formattedAddress": "Coimbra, Portugal",
   "country": "Portugal",
   "countryCode": "PT",
   "neighbourhood": "",
   "provider": "openstreetmap"
  },
  {
   "latitude": 40.2089125,
   "longitude": -8.432006604722574,
   "formattedAddress": "Coimbra, Rua António Granjo, São Bartolomeu, Baixa, Sé Nova, Santa Cruz, Almedina e São Bartolomeu, Coimbra, 3000-024, Portugal",
   "country": "Portugal",
   "city": "Coimbra",
   "zipcode": "3000-024",
   "streetName": "Rua António Granjo",
   "countryCode": "PT",
   "neighbourhood": "São Bartolomeu",
   "provider": "openstreetmap"
  },
  {
   "latitude": 40.2077618,
   "longitude": -8.4265149,
   "formattedAddress": "Coimbra, 3000-062, Portugal",
   "country": "Portugal",
   "city": "Coimbra",
   "zipcode": "3000-062",
   "countryCode": "PT",
   "neighbourhood": "",
   "provider": "openstreetmap"
  },
  {
   "latitude": 39.33750155,
   "longitude": -9.311642353253077,
   "formattedAddress": "Coimbra, Atouguia da Baleia, Peniche, Leiria, Portugal",
   "country": "Portugal",
   "city": "Peniche",
   "countryCode": "PT",
   "neighbourhood": "",
   "provider": "openstreetmap"
  },
  {
   "latitude": 40.250825899999995,
   "longitude": -8.459990428292976,
   "formattedAddress": "Coimbra, Adémia, Trouxemil e Torre de Vilela, Coimbra, Portugal",
   "country": "Portugal",
   "city": "Coimbra",
   "countryCode": "PT",
   "neighbourhood": "",
   "provider": "openstreetmap"
  },
  {
   "latitude": 40.1852115,
   "longitude": -8.4314683,
   "formattedAddress": "Rua António Menano, Alto dos Barreiros, Volta do Salgueiral, Santa Clara e Castelo Viegas, Coimbra, 3040-194, Portugal",
   "country": "Portugal",
   "city": "Coimbra",
   "zipcode": "3040-194",
   "streetName": "Rua António Menano",
   "countryCode": "PT",
   "neighbourhood": "Alto dos Barreiros",
   "provider": "openstreetmap"
  },
  {
   "latitude": 40.1853979,
   "longitude": -8.4315744,
   "formattedAddress": "Rua António Menano, Quinta das Canas, Volta do Salgueiral, Santa Clara e Castelo Viegas, Coimbra, 3040-194, Portugal",
   "country": "Portugal",
   "city": "Coimbra",
   "zipcode": "3040-194",
   "streetName": "Rua António Menano",
   "countryCode": "PT",
   "neighbourhood": "Quinta das Canas",
   "provider": "openstreetmap"
  },
  {
   "latitude": 40.1890802,
   "longitude": -8.4339035,
   "formattedAddress": "Rua António Menano, Alto dos Barreiros, Lages, Santa Clara e Castelo Viegas, Coimbra, 3040-387, Portugal",
   "country": "Portugal",
   "city": "Coimbra",
   "zipcode": "3040-387",
   "streetName": "Rua António Menano",
   "countryCode": "PT",
   "neighbourhood": "Alto dos Barreiros",
   "provider": "openstreetmap"
  },
  {
   "latitude": 40.20197545,
   "longitude": -8.434041109896032,
   "formattedAddress": "Coimbra, Rua António Augusto Gonçalves, Quinta da Várzea, Santa Clara, Santa Clara e Castelo Viegas, Coimbra, AVENIDA JOÃO DAS REGRAS, Portugal",
   "country": "Portugal",
   "city": "Coimbra",
   "zipcode": "AVENIDA JOÃO DAS REGRAS",
   "streetName": "Rua António Augusto Gonçalves",
   "countryCode": "PT",
   "neighbourhood": "Quinta da Várzea",
   "provider": "openstreetmap"
  }
 ],
 "Mannheim, Germany": [
  {
   "latitude": 49.4892913,
   "longitude": 8.4673098,
   "formattedAddress": "Mannheim, Baden-Württemberg, Deutschland",
   "country": "Deutschland",
   "city": "Mannheim",
   "state": "Baden-Württemberg",
   "countryCode": "DE",
   "neighbourhood": "",
   "provider": "openstreetmap"
  },
  {
   "latitude": 49.5003634,
   "longitude": 8.510362837066161,
   "formattedAddress": "Mannheim, Rhein-Neckar-Kreis, Baden-Württemberg, Deutschland",
   "country": "Deutschland",
   "city": "Mannheim",
   "state": "Baden-Württemberg",
   "countryCode": "DE",
   "neighbourhood": "",
   "provider": "openstreetmap"
  },
  {
   "latitude": 54.0945742,
   "longitude": 9.0439174,
   "formattedAddress": "Mannheim, Thalingburen, Nordermeldorf, Mitteldithmarschen, Dithmarschen, Schleswig-Holstein, 25704, Deutschland",
   "country": "Deutschland",
   "city": "Thalingburen",
   "state": "Schleswig-Holstein",
   "zipcode": "25704",
   "streetName": "Mannheim",
   "countryCode": "DE",
   "neighbourhood": "",
   "provider": "openstreetmap"
  },
  {
   "latitude": 49.4866775,
   "longitude": 8.4932059,
   "formattedAddress": "Bootshaus, Hans-Reschke-Ufer, Oststadt, Schwetzingerstadt/Oststadt, Mannheim, Baden-Württemberg, 68165, Deutschland",
   "country": "Deutschland",
   "city": "Mannheim",
   "state": "Baden-Württemberg",
   "zipcode": "68165",
   "streetName": "Hans-Reschke-Ufer",
   "countryCode": "DE",
   "neighbourhood": "",
   "provider": "openstreetmap"
  },
  {
   "latitude": 49.4735931,
   "longitude": 8.466623,
   "formattedAddress": "Lindenhof - Johanniskirche, Mannheim, Windeckstraße, Lindenhof, Mannheim, Baden-Württemberg, 68163, Deutschland",
   "country": "Deutschland",
   "city": "Mannheim",
   "state": "Baden-Württemberg",
   "zipcode": "68163",
   "streetName": "Windeckstraße",
   "countryCode": "DE",
   "neighbourhood": "",
   "provider": "openstreetmap"
  },
  {
   "latitude": 49.487972,
   "longitude": 8.471487427736108,
   "formattedAddress": "Bauhaus, 1-5, R5, Filsbach, Innenstadt, Innenstadt/Jungbusch, Mannheim, Baden-Württemberg, 68161, Deutschland",
   "country": "Deutschland",
   "city": "Mannheim",
   "state": "Baden-Württemberg",
   "zipcode": "68161",
   "streetNumber": "1-5",
   "countryCode": "DE",
   "neighbourhood": "Filsbach",
   "provider": "openstreetmap"
  },
  {
   "latitude": 49.4770897,
   "longitude": 8.4636139,
   "formattedAddress": "Lindenhof - Jugendherberge, Mannheim, Rheinpromenade, Lindenhof, Mannheim, Baden-Württemberg, 68163, Deutschland",
   "country": "Deutschland",
   "city": "Mannheim",
   "state": "Baden-Württemberg",
   "zipcode": "68163",
   "streetName": "Rheinpromenade",
   "countryCode": "DE",
   "neighbourhood": "",
   "provider": "openstreetmap"
  },
  {
   "latitude": 49.5306162,
   "longitude": 8.4995475,
   "formattedAddress": "Döringer's Backhaus, 5, Staudenweg, Gartenstadt, Waldhof, Mannheim, Baden-Württemberg, 68305, Deutschland",
   "country": "Deutschland",
   "city": "Mannheim",
   "state": "Baden-Württemberg",
   "zipcode": "68305",
   "streetName": "Staudenweg",
   "streetNumber": "5",
   "countryCode": "DE",
   "neighbourhood": "Gartenstadt",
   "provider": "openstreetmap"
  },
  {
   "latitude": 49.4638379,
   "longitude": 8.4876793,
   "formattedAddress": "Futteranker, 167, Neckarauer Straße, Almenhof, Neckarau, Mannheim, Baden-Württemberg, 68199, Deutschland",
   "country": "Deutschland",
   "city": "Mannheim",
   "state": "Baden-Württemberg",
   "zipcode": "68199",
   "streetName": "Neckarauer Straße",
   "streetNumber": "167",
   "countryCode": "DE",
   "neighbourhood": "",
   "provider": "openstreetmap"
  },
  {
   "latitude": 49.620724100000004,
   "longitude": 8.432061440752122,
   "formattedAddress": "Tyczka Industrie-Gase, 4, Georg-Tyczka-Straße, Gewerbegebiet Wormser Landstraße, Lampertheim, Kreis Bergstraße, Hessen, 68623, Deutschland",
   "country": "Deutschland",
   "city": "Lampertheim",
   "state": "Hessen",
   "zipcode": "68623",
   "streetName": "Georg-Tyczka-Straße",
   "streetNumber": "4",
   "countryCode": "DE",
   "neighbourhood": "",
   "provider": "openstreetmap"
  }
 ],
 "Tallinn, Estonia": [
  {
   "latitude": 59.4372155,
   "longitude": 24.7453688,
   "formattedAddress": "Tallinn, Harju maakond, 10146, Eesti",
   "country": "Eesti",
   "city": "Tallinn",
   "zipcode": "10146",
   "countryCode": "EE",
   "neighbourhood": "",
   "provider": "openstreetmap"
  },
  {
   "latitude": 59.4250354,
   "longitude": 24.74386926051089,
   "formattedAddress": "Tallinn, Harju maakond, Eesti",
   "country": "Eesti",
   "city": "Tallinn",
   "countryCode": "EE",
   "neighbourhood": "",
   "provider": "openstreetmap"
  },
  {
   "latitude": 59.4250354,
   "longitude": 24.74386926051089,
   "formattedAddress": "Tallinn, Harju maakond, Eesti",
   "country": "Eesti",
   "countryCode": "EE",
   "neighbourhood": "",
   "provider": "openstreetmap"
  },
  {
   "latitude": 59.4336999,
   "longitude": 24.752858,
   "formattedAddress": "Estonia, Teatri väljak, Südalinn, Kesklinna linnaosa, Tallinn, Harju maakond, 10143, Eesti",
   "country": "Eesti",
   "city": "Tallinn",
   "zipcode": "10143",
   "streetName": "Teatri väljak",
   "countryCode": "EE",
   "neighbourhood": "",
   "provider": "openstreetmap"
  },
  {
   "latitude": 59.4350203,
   "longitude": 24.7528377,
   "formattedAddress": "Estonia, Estonia pst, Südalinn, Kesklinna linnaosa, Tallinn, Harju maakond, 10143, Eesti",
   "country": "Eesti",
   "city": "Tallinn",
   "zipcode": "10143",
   "streetName": "Estonia pst",
   "countryCode": "EE",
   "neighbourhood": "",
   "provider": "openstreetmap"
  },
  {
   "latitude": 59.4336234,
   "longitude": 24.751704,
   "formattedAddress": "Estonia, Teatri väljak, Südalinn, Kesklinna linnaosa, Tallinn, Harju maakond, 15030, Eesti",
   "country": "Eesti",
   "city": "Tallinn",
   "zipcode": "15030",
   "streetName": "Teatri väljak",
   "countryCode": "EE",
   "neighbourhood": "",
   "provider": "openstreetmap"
  },
  {
   "latitude": 59.4334,
   "longitude": 24.75062,
   "formattedAddress": "Estonia, Sakala, Südalinn, Kesklinna linnaosa, Tallinn, Harju maakond, 15030, Eesti",
   "country": "Eesti",
   "city": "Tallinn",
   "zipcode": "15030",
   "streetName": "Sakala",
   "countryCode": "EE",
   "neighbourhood": "",
   "provider": "openstreetmap"
  },
  {
   "latitude": 59.4400079,
   "longitude": 24.7360041,
   "formattedAddress": "Tallinn, Reisijate, Kelmiküla, Põhja-Tallinna linnaosa, Tallinn, Harju maakond, 104012, Eesti",
   "country": "Eesti",
   "city": "Tallinn",
   "zipcode": "104012",
   "streetName": "Reisijate",
   "countryCode": "EE",
   "neighbourhood": "",
   "provider": "openstreetmap"
  },
  {
   "latitude": 59.440425,
   "longitude": 24.7372846,
   "formattedAddress": "Tallinn, Reisijate, Kelmiküla, Põhja-Tallinna linnaosa, Tallinn, Harju maakond, 104012, Eesti",
   "country": "Eesti",
   "city": "Tallinn",
   "zipcode": "104012",
   "streetName": "Reisijate",
   "countryCode": "EE",
   "neighbourhood": "",
   "provider": "openstreetmap"
  },
  {
   "latitude": 59.4396838,
   "longitude": 24.7359904,
   "formattedAddress": "Tallinn, Toompuiestee, Vanalinn, Kesklinna linnaosa, Tallinn, Harju maakond, 104012, Eesti",
   "country": "Eesti",
   "city": "Tallinn",
   "zipcode": "104012",
   "streetName": "Toompuiestee",
   "countryCode": "EE",
   "neighbourhood": "",
   "provider": "openstreetmap"
  }
 ],
 "Prague, Czechia": [
  {
   "latitude": 50.0874654,
   "longitude": 14.4212535,
   "formattedAddress": "Hlavní město Praha, Praha, Česko",
   "country": "Česko",
   "city": "Hlavní město Praha",
   "state": "Praha",
   "countryCode": "CZ",
   "neighbourhood": "",
   "provider": "openstreetmap"
  },
  {
   "latitude": 50.0596288,
   "longitude": 14.446459273258009,
   "formattedAddress": "Praha, Česko",
   "country": "Česko",
   "state": "Praha",
   "countryCode": "CZ",
   "neighbourhood": "",
   "provider": "openstreetmap"
  },
  {
   "latitude": 50.0596288,
   "longitude": 14.446459273258009,
   "formattedAddress": "Praha, Česko",
   "country": "Česko",
   "state": "Praha",
   "countryCode": "CZ",
   "neighbourhood": "",
   "provider": "openstreetmap"
  },
  {
   "latitude": 50.08318935,
   "longitude": 14.441641225229684,
   "formattedAddress": "Vysoká škola ekonomická v Praze, Siwiecova, Žižkov, Hlavní město Praha, Praha, 10 000, Česko",
   "country": "Česko",
   "city": "Hlavní město Praha",
   "state": "Praha",
   "zipcode": "10 000",
   "streetName": "Siwiecova",
   "countryCode": "CZ",
   "neighbourhood": "",
   "provider": "openstreetmap"
  },
  {
   "latitude": 50.0203402,
   "longitude": 14.49252488340472,
   "formattedAddress": "Vysoká škola ekonomická v Praze, Ekonomická, Horní Kunratice, Kunratice, Hlavní město Praha, Praha, 148 00, Česko",
   "country": "Česko",
   "city": "Hlavní město Praha",
   "state": "Praha",
   "zipcode": "148 00",
   "streetName": "Ekonomická",
   "countryCode": "CZ",
   "neighbourhood": "Horní Kunratice",
   "provider": "openstreetmap"
  },
  {
   "latitude": 50.0992702,
   "longitude": 14.3766834,
   "formattedAddress": "Tchajpejská hospodářská a kulturní kancelář, 2590/33c, Evropská, Hanspaulka, Dejvice, Hlavní město Praha, Praha, 16000, Česko",
   "country": "Česko",
   "city": "Hlavní město Praha",
   "state": "Praha",
   "zipcode": "16000",
   "streetName": "Evropská",
   "streetNumber": "2590/33c",
   "countryCode": "CZ",
   "neighbourhood": "Hanspaulka",
   "provider": "openstreetmap"
  }
 ],
 "50321 Brühl, Germany": [
  {
   "latitude": 50.828829,
   "longitude": 6.9121605,
   "formattedAddress": "Max-Ernst-Allee 4, 50321 Brühl, Max-Ernst-Allee, Brühl-Nord, Brühl, Rhein-Erft-Kreis, Nordrhein-Westfalen, 50321, Deutschland",
   "country": "Deutschland",
   "city": "Brühl",
   "state": "Nordrhein-Westfalen",
   "zipcode": "50321",
   "streetName": "Max-Ernst-Allee",
   "countryCode": "DE",
   "neighbourhood": "Brühl-Nord",
   "provider": "openstreetmap"
  }
 ],
 "Novi Sad, Serbia": [
  {
   "latitude": 45.2551338,
   "longitude": 19.8451756,
   "formattedAddress": "Нови Сад, Град Нови Сад, Јужнобачки управни округ, Војводина, 21000, Србија",
   "country": "Србија",
   "city": "Нови Сад",
   "state": "Војводина",
   "zipcode": "21000",
   "countryCode": "RS",
   "neighbourhood": "",
   "provider": "openstreetmap"
  },
  {
   "latitude": 45.27156275,
   "longitude": 19.84349976311305,
   "formattedAddress": "Нови Сад, Град Нови Сад, Јужнобачки управни округ, Војводина, Србија",
   "country": "Србија",
   "city": "Град Нови Сад",
   "state": "Војводина",
   "countryCode": "RS",
   "neighbourhood": "",
   "provider": "openstreetmap"
  },
  {
   "latitude": 45.2658705,
   "longitude": 19.8293645,
   "formattedAddress": "Нови Сад, 4, Булевар Јаше Томића, Банатић, МЗ Омалдински покрет, Нови Сад, Град Нови Сад, Јужнобачки управни округ, Војводина, 21000, Србија",
   "country": "Србија",
   "city": "Град Нови Сад",
   "state": "Војводина",
   "zipcode": "21000",
   "streetName": "Булевар Јаше Томића",
   "streetNumber": "4",
   "countryCode": "RS",
   "neighbourhood": "",
   "provider": "openstreetmap"
  },
  {
   "latitude": 45.2864222,
   "longitude": 19.8937496,
   "formattedAddress": "Нови Сад, A1, МЗ Салајка, Нови Сад, Град Нови Сад, Јужнобачки управни округ, Војводина, 21132, Србија",
   "country": "Србија",
   "city": "Град Нови Сад",
   "state": "Војводина",
   "zipcode": "21132",
   "streetName": "A1",
   "countryCode": "RS",
   "neighbourhood": "",
   "provider": "openstreetmap"
  },
  {
   "latitude": 45.2633879,
   "longitude": 19.829078317400658,
   "formattedAddress": "Нови Сад, 1, Булевар Јаше Томића, Банатић, МЗ Омалдински покрет, Нови Сад, Град Нови Сад, Јужнобачки управни округ, Војводина, 21101, Србија",
   "country": "Србија",
   "city": "Град Нови Сад",
   "state": "Војводина",
   "zipcode": "21101",
   "streetName": "Булевар Јаше Томића",
   "streetNumber": "1",
   "countryCode": "RS",
   "neighbourhood": "",
   "provider": "openstreetmap"
  },
  {
   "latitude": 45.2636916,
   "longitude": 19.829503307714916,
   "formattedAddress": "Нови Сад, Булевар Јаше Томића, Банатић, МЗ Омалдински покрет, Нови Сад, Град Нови Сад, Јужнобачки управни округ, Војводина, 21101, Србија",
   "country": "Србија",
   "city": "Град Нови Сад",
   "state": "Војводина",
   "zipcode": "21101",
   "streetName": "Булевар Јаше Томића",
   "countryCode": "RS",
   "neighbourhood": "",
   "provider": "openstreetmap"
  },
  {
   "latitude": 45.1841782,
   "longitude": 19.826923975358167,
   "formattedAddress": "Планинарски дом „Железничар“, Фрушкогорски пут, Поповица, МЗ Сремска Каменица, Сремска Каменица, Град Нови Сад, Јужнобачки управни округ, Војводина, 21206, Србија",
   "country": "Србија",
   "city": "Град Нови Сад",
   "state": "Војводина",
   "zipcode": "21206",
   "streetName": "Фрушкогорски пут",
   "countryCode": "RS",
   "neighbourhood": "Поповица",
   "provider": "openstreetmap"
  },
  {
   "latitude": 45.3147975,
   "longitude": 19.797272,
   "formattedAddress": "Нови Сад, A1, МЗ Ченеј, Ченеј, Град Нови Сад, Јужнобачки управни округ, Војводина, Србија",
   "country": "Србија",
   "city": "Град Нови Сад",
   "state": "Војводина",
   "streetName": "A1",
   "countryCode": "RS",
   "neighbourhood": "",
   "provider": "openstreetmap"
  }
 ],
 "Bengaluru, Karnataka, India": [
  {
   "latitude": 12.9767936,
   "longitude": 77.590082,
   "formattedAddress": "Bengaluru, Bangalore North, Bangalore Urban, Karnataka, 560001, India",
   "country": "India",
   "city": "Bengaluru",
   "state": "Karnataka",
   "zipcode": "560001",
   "countryCode": "IN",
   "neighbourhood": "",
   "provider": "openstreetmap"
  },
  {
   "latitude": 12.98883395,
   "longitude": 77.62227730794459,
   "formattedAddress": "Bengaluru, Bangalore North, Bangalore Urban, Karnataka, India",
   "country": "India",
   "city": "Bengaluru",
   "state": "Karnataka",
   "countryCode": "IN",
   "neighbourhood": "",
   "provider": "openstreetmap"
  },
  {
   "latitude": 12.97493875,
   "longitude": 77.60195081047257,
   "formattedAddress": "Shantala Nagar, East Zone, Bengaluru, Bangalore North, Bangalore Urban, Karnataka, BENGALURU, India",
   "country": "India",
   "city": "Bengaluru",
   "state": "Karnataka",
   "zipcode": "BENGALURU",
   "countryCode": "IN",
   "neighbourhood": "",
   "provider": "openstreetmap"
  },
  {
   "latitude": 12.983073000000001,
   "longitude": 77.59316471493847,
   "formattedAddress": "All India Radio, Bengaluru, Sampangiram Nagar Ward, East Zone, Bengaluru, Bangalore North, Bangalore Urban, Karnataka, India",
   "country": "India",
   "city": "Bengaluru",
   "state": "Karnataka",
   "countryCode": "IN",
   "neighbourhood": "",
   "provider": "openstreetmap"
  },
  {
   "latitude": 12.94945565,
   "longitude": 77.5171005577231,
   "formattedAddress": "Dr. B. R. Ambedkar School of Economics University, Bengaluru, Gandhi Marg, Jnana Bharathi, Nayandahalli Ward, West Zone, Bengaluru, Bangalore North, Bangalore Urban, Karnataka, 560072, India",
   "country": "India",
   "city": "Bengaluru",
   "state": "Karnataka",
   "zipcode": "560072",
   "streetName": "Gandhi Marg",
   "countryCode": "IN",
   "neighbourhood": "",
   "provider": "openstreetmap"
  },
  {
   "latitude": 12.9703171,
   "longitude": 77.6096478,
   "formattedAddress": "Westside, 15, Magrath Rd, Ashok Nagar, Bengaluru,, Magrath Road, Ashok Nagar, Shantala Nagar, Bengaluru, Bangalore North, Bangalore Urban, Karnataka, 560025, India",
   "country": "India",
   "city": "Bengaluru",
   "state": "Karnataka",
   "zipcode": "560025",
   "streetName": "Magrath Road",
   "streetNumber": "15, Magrath Rd, Ashok Nagar, Bengaluru,",
   "countryCode": "IN",
   "neighbourhood": "",
   "provider": "openstreetmap"
  },
  {
   "latitude": 13.0010322,
   "longitude": 77.6325429,
   "formattedAddress": "Clarks, No. 26/10, Banaswadi Main Road, Banaswadi Layout, Maruthi Sevanagar, Bengaluru, Banaswadi Road, MSO Colony, Maruthi Seva Nagar, East Zone, Bengaluru, Bangalore North, Bangalore Urban, Karnataka, 560033, India",
   "country": "India",
   "city": "Bengaluru",
   "state": "Karnataka",
   "zipcode": "560033",
   "streetName": "Banaswadi Road",
   "streetNumber": "No. 26/10, Banaswadi Main Road, Banaswadi Layout, Maruthi Sevanagar, Bengaluru",
   "countryCode": "IN",
   "neighbourhood": "MSO Colony",
   "provider": "openstreetmap"
  },
  {
   "latitude": 12.970278,
   "longitude": 77.6098784,
   "formattedAddress": "CIS, Magrath Rd, Ashok Nagar, Bengaluru,, Magrath Road, Ashok Nagar, Shantala Nagar, Bengaluru, Bangalore North, Bangalore Urban, Karnataka, 560025, India",
   "country": "India",
   "city": "Bengaluru",
   "state": "Karnataka",
   "zipcode": "560025",
   "streetName": "Magrath Road",
   "streetNumber": "Magrath Rd, Ashok Nagar, Bengaluru,",
   "countryCode": "IN",
   "neighbourhood": "",
   "provider": "openstreetmap"
  },
  {
   "latitude": 12.8947975,
   "longitude": 77.598757,
   "formattedAddress": "Fortis Hospital Private Limited Blood Bank, Bengaluru, Bannerghatta Road, Arekere, Puttenahalli Ward, Bommanahalli Zone, Bengaluru, Bangalore South, Bangalore Urban, Karnataka, 560076, India",
   "country": "India",
   "city": "Bengaluru",
   "state": "Karnataka",
   "zipcode": "560076",
   "streetName": "Bannerghatta Road",
   "countryCode": "IN",
   "neighbourhood": "",
   "provider": "openstreetmap"
  },
  {
   "latitude": 12.9682916,
   "longitude": 77.7494192,
   "formattedAddress": "Vijaya Bank, NO.274, 1ST FLOOR, MAIN ROAD, WHITEFIELD, Whitefield, Bengaluru, Karnataka 560066, Whitefield Main Road, Narayanappa Gardens, Hagadur, Whitefield, Bengaluru, Bangalore East, Bangalore Urban, Karnataka, 560066, India",
   "country": "India",
   "city": "Bengaluru",
   "state": "Karnataka",
   "zipcode": "560066",
   "streetName": "Whitefield Main Road",
   "streetNumber": "NO.274, 1ST FLOOR, MAIN ROAD, WHITEFIELD, Whitefield, Bengaluru, Karnataka 560066",
   "countryCode": "IN",
   "neighbourhood": "Narayanappa Gardens",
   "provider": "openstreetmap"
  }
 ],
 "Bucharest, Romania": [
  {
   "latitude": 44.4361414,
   "longitude": 26.1027202,
   "formattedAddress": "Municipiul București, România",
   "country": "România",
   "city": "Municipiul București",
   "countryCode": "RO",
   "neighbourhood": "",
   "provider": "openstreetmap"
  }
 ],
 "Budapest, Hungary": [
  {
   "latitude": 47.4979937,
   "longitude": 19.0403594,
   "formattedAddress": "Budapest, Közép-Magyarország, Magyarország",
   "country": "Magyarország",
   "city": "Budapest",
   "countryCode": "HU",
   "neighbourhood": "",
   "provider": "openstreetmap"
  },
  {
   "latitude": 47.48138955,
   "longitude": 19.14609412691246,
   "formattedAddress": "Budapest, Közép-Magyarország, Magyarország",
   "country": "Magyarország",
   "city": "Budapest",
   "countryCode": "HU",
   "neighbourhood": "",
   "provider": "openstreetmap"
  },
  {
   "latitude": 47.4659153,
   "longitude": 19.0774747,
   "formattedAddress": "Közvágóhíd, Soroksári út, Külső-Ferencváros, IX. kerület, Budapest, VII. kerület, Közép-Magyarország, 1095, Magyarország",
   "country": "Magyarország",
   "city": "Budapest",
   "zipcode": "1095",
   "streetName": "Soroksári út",
   "countryCode": "HU",
   "neighbourhood": "",
   "provider": "openstreetmap"
  },
  {
   "latitude": 47.4822932,
   "longitude": 19.04864416272622,
   "formattedAddress": "Finn Nagykövetség, 16a, Kelenhegyi út, Gellérthegy, XI. kerület, Budapest, V. kerület, Közép-Magyarország, 1118, Magyarország",
   "country": "Magyarország",
   "city": "Budapest",
   "zipcode": "1118",
   "streetName": "Kelenhegyi út",
   "streetNumber": "16a",
   "countryCode": "HU",
   "neighbourhood": "",
   "provider": "openstreetmap"
  },
  {
   "latitude": 47.49744665,
   "longitude": 19.041570086053497,
   "formattedAddress": "Budapest, Duna-part látképe, a Budai Várnegyed és az Andrássy út, I. kerület, Budapest, V. kerület, Közép-Magyarország, Magyarország",
   "country": "Magyarország",
   "city": "Budapest",
   "countryCode": "HU",
   "neighbourhood": "",
   "provider": "openstreetmap"
  },
  {
   "latitude": 47.491835,
   "longitude": 18.9789321,
   "formattedAddress": "Széchenyi-hegyi TV-torony, Csíz utca, Normafa, Széchenyihegy, XII. kerület, Budapest, XII. kerület, Közép-Magyarország, 1121, Magyarország",
   "country": "Magyarország",
   "city": "Budapest",
   "zipcode": "1121",
   "streetName": "Csíz utca",
   "countryCode": "HU",
   "neighbourhood": "",
   "provider": "openstreetmap"
  },
  {
   "latitude": 47.4687091,
   "longitude": 19.1258591,
   "formattedAddress": "Száva utcai adótorony, Száva utca, Kúttó, X. kerület, Budapest, XIX. kerület, Közép-Magyarország, 1107, Magyarország",
   "country": "Magyarország",
   "city": "Budapest",
   "zipcode": "1107",
   "streetName": "Száva utca",
   "countryCode": "HU",
   "neighbourhood": "",
   "provider": "openstreetmap"
  },
  {
   "latitude": 47.51315315,
   "longitude": 19.083716442532186,
   "formattedAddress": "Magyar Zene Háza, 3, Olof Palme sétány, Városliget, XIV. kerület, Budapest, VII. kerület, Közép-Magyarország, 1146, Magyarország",
   "country": "Magyarország",
   "city": "Budapest",
   "zipcode": "1146",
   "streetName": "Olof Palme sétány",
   "streetNumber": "3",
   "countryCode": "HU",
   "neighbourhood": "",
   "provider": "openstreetmap"
  },
  {
   "latitude": 47.5577402,
   "longitude": 19.077765317376326,
   "formattedAddress": "Budapest Bank, 193, Váci út, Felső Bikarét, Angyalföld, XIII. kerület, Budapest, XIII. kerület, Közép-Magyarország, 1138, Magyarország",
   "country": "Magyarország",
   "city": "Budapest",
   "zipcode": "1138",
   "streetName": "Váci út",
   "streetNumber": "193",
   "countryCode": "HU",
   "neighbourhood": "Felső Bikarét",
   "provider": "openstreetmap"
  },
  {
   "latitude": 47.430126,
   "longitude": 19.003635,
   "formattedAddress": "Budatétény, benzinkút, Balatoni út, Erdődűlő, Budatétény, XXII. kerület, Budapest, XI. kerület, Közép-Magyarország, 1223, Magyarország",
   "country": "Magyarország",
   "city": "Budapest",
   "zipcode": "1223",
   "streetName": "Balatoni út",
   "countryCode": "HU",
   "neighbourhood": "Erdődűlő",
   "provider": "openstreetmap"
  }
 ],
 "Geneva, Switzerland": [
  {
   "latitude": 46.2017559,
   "longitude": 6.1466014,
   "formattedAddress": "Genève, 1204, Schweiz/Suisse/Svizzera/Svizra",
   "country": "Schweiz/Suisse/Svizzera/Svizra",
   "city": "Genève",
   "state": "Genève",
   "zipcode": "1204",
   "countryCode": "CH",
   "neighbourhood": "",
   "provider": "openstreetmap"
  },
  {
   "latitude": 46.2047169,
   "longitude": 6.1423106290939335,
   "formattedAddress": "Genève, Schweiz/Suisse/Svizzera/Svizra",
   "country": "Schweiz/Suisse/Svizzera/Svizra",
   "city": "Genève",
   "state": "Genève",
   "countryCode": "CH",
   "neighbourhood": "",
   "provider": "openstreetmap"
  },
  {
   "latitude": 46.2256509,
   "longitude": 6.1439209,
   "formattedAddress": "Genève, Schweiz/Suisse/Svizzera/Svizra",
   "country": "Schweiz/Suisse/Svizzera/Svizra",
   "state": "Genève",
   "countryCode": "CH",
   "neighbourhood": "",
   "provider": "openstreetmap"
  }
 ],
 "Berlin, Germany": [
  {
   "latitude": 52.5170365,
   "longitude": 13.3888599,
   "formattedAddress": "Berlin, Deutschland",
   "country": "Deutschland",
   "city": "Berlin",
   "countryCode": "DE",
   "neighbourhood": "",
   "provider": "openstreetmap"
  },
  {
   "latitude": 52.5103817,
   "longitude": 13.4349112,
   "formattedAddress": "Berlin Ostbahnhof, Mitteltunnel, Friedrichshain, Friedrichshain-Kreuzberg, Berlin, 10243, Deutschland",
   "country": "Deutschland",
   "city": "Berlin",
   "zipcode": "10243",
   "streetName": "Mitteltunnel",
   "countryCode": "DE",
   "neighbourhood": "",
   "provider": "openstreetmap"
  },
  {
   "latitude": 52.5034002,
   "longitude": 13.3386373,
   "formattedAddress": "Berlin, Tauentzienstraße, Charlottenburg, Charlottenburg-Wilmersdorf, Berlin, 10789, Deutschland",
   "country": "Deutschland",
   "city": "Berlin",
   "zipcode": "10789",
   "streetName": "Tauentzienstraße",
   "countryCode": "DE",
   "neighbourhood": "",
   "provider": "openstreetmap"
  },
  {
   "latitude": 52.503664900000004,
   "longitude": 13.35168136061127,
   "formattedAddress": "Hotel Berlin, Berlin, 17, Lützowplatz, Botschaftsviertel, Tiergarten, Mitte, Berlin, 10785, Deutschland",
   "country": "Deutschland",
   "city": "Berlin",
   "zipcode": "10785",
   "streetName": "Lützowplatz",
   "streetNumber": "17",
   "countryCode": "DE",
   "neighbourhood": "",
   "provider": "openstreetmap"
  },
  {
   "latitude": 54.0363605,
   "longitude": 10.4461313,
   "formattedAddress": "Berlin, Seedorf, Trave-Land, Kreis Segeberg, Schleswig-Holstein, 23823, Deutschland",
   "country": "Deutschland",
   "city": "Berlin",
   "state": "Schleswig-Holstein",
   "zipcode": "23823",
   "countryCode": "DE",
   "neighbourhood": "",
   "provider": "openstreetmap"
  },
  {
   "latitude": 54.4051916,
   "longitude": 9.4248338,
   "formattedAddress": "Berlin, Potsdam, Klein Bennebek, Kropp-Stapelholm, Schleswig-Flensburg, Schleswig-Holstein, 24848, Deutschland",
   "country": "Deutschland",
   "city": "Klein Bennebek",
   "state": "Schleswig-Holstein",
   "zipcode": "24848",
   "streetName": "Berlin",
   "countryCode": "DE",
   "neighbourhood": "",
   "provider": "openstreetmap"
  },
  {
   "latitude": 52.5110906,
   "longitude": 13.315751530699703,
   "formattedAddress": "Dritte Kirche Christi, Wissenschaftler, Berlin, 16, Schillerstraße, Charlottenburg, Charlottenburg-Wilmersdorf, Berlin, 10625, Deutschland",
   "country": "Deutschland",
   "city": "Berlin",
   "zipcode": "10625",
   "streetName": "Schillerstraße",
   "streetNumber": "16",
   "countryCode": "DE",
   "neighbourhood": "",
   "provider": "openstreetmap"
  },
  {
   "latitude": 52.4187324,
   "longitude": 13.1964052,
   "formattedAddress": "Berlin, A 115, Nikolassee, Steglitz-Zehlendorf, Berlin, 14109, Deutschland",
   "country": "Deutschland",
   "city": "Berlin",
   "zipcode": "14109",
   "streetName": "A 115",
   "countryCode": "DE",
   "neighbourhood": "",
   "provider": "openstreetmap"
  },
  {
   "latitude": 52.5202262,
   "longitude": 13.3704874,
   "formattedAddress": "Berlin, Willy-Brandt-Straße, Tiergarten, Mitte, Berlin, 10557, Deutschland",
   "country": "Deutschland",
   "city": "Berlin",
   "zipcode": "10557",
   "streetName": "Willy-Brandt-Straße",
   "countryCode": "DE",
   "neighbourhood": "",
   "provider": "openstreetmap"
  },
  {
   "latitude": 52.5136348,
   "longitude": 13.4118425,
   "formattedAddress": "Anlegesteg Historischer Hafen Berlin, Märkisches Ufer, Mitte, Berlin, 10179, Deutschland",
   "country": "Deutschland",
   "city": "Berlin",
   "zipcode": "10179",
   "streetName": "Märkisches Ufer",
   "countryCode": "DE",
   "neighbourhood": "",
   "provider": "openstreetmap"
  }
 ],
 "Poznań, Poland": [
  {
   "latitude": 52.4006632,
   "longitude": 16.91973259178088,
   "formattedAddress": "Poznań, województwo wielkopolskie, Polska",
   "country": "Polska",
   "state": "województwo wielkopolskie",
   "countryCode": "PL",
   "neighbourhood": "",
   "provider": "openstreetmap"
  },
  {
   "latitude": 52.4006632,
   "longitude": 16.91973259178088,
   "formattedAddress": "Poznań, województwo wielkopolskie, Polska",
   "country": "Polska",
   "state": "województwo wielkopolskie",
   "countryCode": "PL",
   "neighbourhood": "",
   "provider": "openstreetmap"
  },
  {
   "latitude": 52.4082663,
   "longitude": 16.9335199,
   "formattedAddress": "Poznań, województwo wielkopolskie, 60-001, Polska",
   "country": "Polska",
   "city": "Poznań",
   "state": "województwo wielkopolskie",
   "zipcode": "60-001",
   "countryCode": "PL",
   "neighbourhood": "",
   "provider": "openstreetmap"
  },
  {
   "latitude": 52.4006632,
   "longitude": 16.91973259178088,
   "formattedAddress": "Poznań, województwo wielkopolskie, Polska",
   "country": "Polska",
   "state": "województwo wielkopolskie",
   "countryCode": "PL",
   "neighbourhood": "",
   "provider": "openstreetmap"
  },
  {
   "latitude": 51.6768198,
   "longitude": 22.3045472,
   "formattedAddress": "Poznań, gmina Serokomla, powiat łukowski, województwo lubelskie, 21-413, Polska",
   "country": "Polska",
   "city": "Poznań",
   "state": "województwo lubelskie",
   "zipcode": "21-413",
   "countryCode": "PL",
   "neighbourhood": "",
   "provider": "openstreetmap"
  },
  {
   "latitude": 49.9716667,
   "longitude": 19.0897222,
   "formattedAddress": "Poznań, Góra, gmina Miedźna, powiat pszczyński, województwo śląskie, 43-227, Polska",
   "country": "Polska",
   "city": "Góra",
   "state": "województwo śląskie",
   "zipcode": "43-227",
   "countryCode": "PL",
   "neighbourhood": "",
   "provider": "openstreetmap"
  },
  {
   "latitude": 50.6078512,
   "longitude": 22.5019774,
   "formattedAddress": "Poznań, Flisy, Kiszki, gmina Dzwola, powiat janowski, województwo lubelskie, 23-403, Polska",
   "country": "Polska",
   "city": "Flisy",
   "state": "województwo lubelskie",
   "zipcode": "23-403",
   "countryCode": "PL",
   "neighbourhood": "",
   "provider": "openstreetmap"
  },
  {
   "latitude": 52.413833,
   "longitude": 16.9130317,
   "formattedAddress": "Jeżycka, Jeżyckie Osiedle, Jeżyce, Poznań, województwo wielkopolskie, 60-853, Polska",
   "country": "Polska",
   "state": "województwo wielkopolskie",
   "zipcode": "60-853",
   "streetName": "Jeżycka",
   "countryCode": "PL",
   "neighbourhood": "Jeżyckie Osiedle",
   "provider": "openstreetmap"
  },
  {
   "latitude": 52.4145643,
   "longitude": 16.7991037,
   "formattedAddress": "Poznań, Bukowska, Ławica, Poznań, województwo wielkopolskie, 60-001, Polska",
   "country": "Polska",
   "city": "Poznań",
   "state": "województwo wielkopolskie",
   "zipcode": "60-001",
   "streetName": "Bukowska",
   "countryCode": "PL",
   "neighbourhood": "",
   "provider": "openstreetmap"
  },
  {
   "latitude": 52.4143469,
   "longitude": 16.7990647,
   "formattedAddress": "Poznań, Bukowska, Ławica, Poznań, województwo wielkopolskie, 60-183, Polska",
   "country": "Polska",
   "city": "Poznań",
   "state": "województwo wielkopolskie",
   "zipcode": "60-183",
   "streetName": "Bukowska",
   "countryCode": "PL",
   "neighbourhood": "",
   "provider": "openstreetmap"
  }
 ],
 "Las Vegas, NV, USA": [
  {
   "latitude": 36.1672559,
   "longitude": -115.148516,
   "formattedAddress": "Las Vegas, Clark County, Nevada, United States",
   "country": "United States",
   "city": "Las Vegas",
   "state": "Nevada",
   "countryCode": "US",
   "neighbourhood": "",
   "provider": "openstreetmap"
  },
  {
   "latitude": 36.099448100000004,
   "longitude": -115.14422048990326,
   "formattedAddress": "University of Nevada, Las Vegas, 4505, East Tropicana Avenue, Midtown UNLV, Las Vegas, Clark County, Nevada, 89154, United States",
   "country": "United States",
   "city": "Las Vegas",
   "state": "Nevada",
   "zipcode": "89154",
   "streetName": "East Tropicana Avenue",
   "streetNumber": "4505",
   "countryCode": "US",
   "neighbourhood": "",
   "provider": "openstreetmap"
  },
  {
   "latitude": 36.10782625,
   "longitude": -115.14186111825259,
   "formattedAddress": "University of Nevada, Las Vegas, 4505, University Center Drive, Hughes Center, Las Vegas, Clark County, Nevada, 89154, United States",
   "country": "United States",
   "city": "Las Vegas",
   "state": "Nevada",
   "zipcode": "89154",
   "streetName": "University Center Drive",
   "streetNumber": "4505",
   "countryCode": "US",
   "neighbourhood": "",
   "provider": "openstreetmap"
  },
  {
   "latitude": 36.0862687,
   "longitude": -115.01673651281678,
   "formattedAddress": "Sam Boyd Stadium, 7000, East Russell Road, Las Vegas, Clark County, Nevada, 89122, United States",
   "country": "United States",
   "city": "Las Vegas",
   "state": "Nevada",
   "zipcode": "89122",
   "streetName": "East Russell Road",
   "streetNumber": "7000",
   "countryCode": "US",
   "neighbourhood": "",
   "provider": "openstreetmap"
  },
  {
   "latitude": 36.0028345,
   "longitude": -115.20129908882386,
   "formattedAddress": "Enterprise, Southern Highlands, Clark County, Nevada, United States",
   "country": "United States",
   "state": "Nevada",
   "countryCode": "US",
   "neighbourhood": "Enterprise",
   "provider": "openstreetmap"
  },
  {
   "latitude": 36.15533955,
   "longitude": -115.11862822482709,
   "formattedAddress": "1229 S Eastern Ave, Las Vegas, NV 89104, 1229, South Eastern Avenue, Five Points, Las Vegas, Clark County, Nevada, 89104, United States",
   "country": "United States",
   "city": "Las Vegas",
   "state": "Nevada",
   "zipcode": "89104",
   "streetName": "South Eastern Avenue",
   "streetNumber": "1229",
   "countryCode": "US",
   "neighbourhood": "",
   "provider": "openstreetmap"
  },
  {
   "latitude": 36.0685923,
   "longitude": -115.1664237,
   "formattedAddress": "Las Vegas, NV - RTC S. Strip Term. Greyhound Station, East Sunset Road, Enterprise, Paradise, Clark County, Nevada, 89119-4016, United States",
   "country": "United States",
   "city": "Paradise",
   "state": "Nevada",
   "zipcode": "89119-4016",
   "streetName": "East Sunset Road",
   "countryCode": "US",
   "neighbourhood": "Enterprise",
   "provider": "openstreetmap"
  },
  {
   "latitude": 36.0404992,
   "longitude": -115.18531983268689,
   "formattedAddress": "The Berkley, Las Vegas, 8280, Dean Martin Drive, Enterprise, Clark County, Nevada, 89139, United States",
   "country": "United States",
   "state": "Nevada",
   "zipcode": "89139",
   "streetName": "Dean Martin Drive",
   "streetNumber": "8280",
   "countryCode": "US",
   "neighbourhood": "Enterprise",
   "provider": "openstreetmap"
  }
 ],
 "Stockholm, Sweden": [
  {
   "latitude": 59.3251172,
   "longitude": 18.0710935,
   "formattedAddress": "Stockholms kommun, Solna kommun, Stockholms län, Sverige",
   "country": "Sverige",
   "city": "Stockholms kommun",
   "countryCode": "SE",
   "neighbourhood": "",
   "provider": "openstreetmap"
  },
  {
   "latitude": 58.6796925,
   "longitude": 13.8849555,
   "formattedAddress": "Stockholm, Mariestads kommun, Västra Götalands län, 54232, Sverige",
   "country": "Sverige",
   "city": "Stockholm",
   "zipcode": "54232",
   "countryCode": "SE",
   "neighbourhood": "",
   "provider": "openstreetmap"
  },
  {
   "latitude": 60.5640539,
   "longitude": 14.663435,
   "formattedAddress": "Stockholm, Leksands kommun, Dalarnas län, Sverige",
   "country": "Sverige",
   "city": "Stockholm",
   "countryCode": "SE",
   "neighbourhood": "",
   "provider": "openstreetmap"
  },
  {
   "latitude": 57.53549495,
   "longitude": 16.746369220465393,
   "formattedAddress": "Stockholm, Oskarshamns kommun, Kalmar län, Sverige",
   "country": "Sverige",
   "countryCode": "SE",
   "neighbourhood": "",
   "provider": "openstreetmap"
  },
  {
   "latitude": 56.3577905,
   "longitude": 15.1687221,
   "formattedAddress": "Stockholm, Backaryd, Ronneby kommun, Blekinge län, Sverige",
   "country": "Sverige",
   "city": "Backaryd",
   "countryCode": "SE",
   "neighbourhood": "",
   "provider": "openstreetmap"
  },
  {
   "latitude": 56.1424586,
   "longitude": 13.4173708,
   "formattedAddress": "Stockholm, Perstorp, Perstorps kommun, Skåne län, Sverige",
   "country": "Sverige",
   "city": "Perstorp",
   "countryCode": "SE",
   "neighbourhood": "",
   "provider": "openstreetmap"
  },
  {
   "latitude": 56.180276,
   "longitude": 15.019952990279878,
   "formattedAddress": "Stockholm, Karlshamns kommun, Blekinge län, Sverige",
   "country": "Sverige",
   "countryCode": "SE",
   "neighbourhood": "",
   "provider": "openstreetmap"
  },
  {
   "latitude": 58.5125874,
   "longitude": 12.2161,
   "formattedAddress": "Stockholm, Vänersborgs kommun, Västra Götalands län, 462 97, Sverige",
   "country": "Sverige",
   "zipcode": "462 97",
   "countryCode": "SE",
   "neighbourhood": "",
   "provider": "openstreetmap"
  },
  {
   "latitude": 58.6010028,
   "longitude": 12.3184638,
   "formattedAddress": "Stockholm, Vänersborgs kommun, Västra Götalands län, 46463, Sverige",
   "country": "Sverige",
   "zipcode": "46463",
   "countryCode": "SE",
   "neighbourhood": "",
   "provider": "openstreetmap"
  },
  {
   "latitude": 58.426792,
   "longitude": 11.5357546,
   "formattedAddress": "Stockholm, Lysekils kommun, Västra Götalands län, Sverige",
   "country": "Sverige",
   "countryCode": "SE",
   "neighbourhood": "",
   "provider": "openstreetmap"
  }
 ],
 "Odesa, Odessa Oblast, Ukraine, 65000": [
  {
   "latitude": 46.4843023,
   "longitude": 30.7322878,
   "formattedAddress": "Одеса, Одеська міська громада, Одеський район, Одеська область, Україна",
   "country": "Україна",
   "city": "Одеса",
   "state": "Одеська область",
   "countryCode": "UA",
   "neighbourhood": "",
   "provider": "openstreetmap"
  }
 ],
 "Vilnius, Lithuania": [
  {
   "latitude": 54.6870458,
   "longitude": 25.2829111,
   "formattedAddress": "Vilnius, Vilniaus miesto savivaldybė, Vilniaus apskritis, 01101, Lietuva",
   "country": "Lietuva",
   "city": "Vilnius",
   "state": "Vilniaus apskritis",
   "zipcode": "01101",
   "countryCode": "LT",
   "neighbourhood": "",
   "provider": "openstreetmap"
  },
  {
   "latitude": 54.700921199999996,
   "longitude": 25.322104922028075,
   "formattedAddress": "Vilnius, Vilniaus miesto savivaldybė, Vilniaus apskritis, Lietuva",
   "country": "Lietuva",
   "city": "Vilnius",
   "state": "Vilniaus apskritis",
   "countryCode": "LT",
   "neighbourhood": "",
   "provider": "openstreetmap"
  },
  {
   "latitude": 54.6698883,
   "longitude": 25.2847418,
   "formattedAddress": "Vilnius, Geležinkelio g., Kauno-Algirdo kvartalas, Naujamiesčio seniūnija, Vilnius, Vilniaus miesto savivaldybė, Vilniaus apskritis, 01047, Lietuva",
   "country": "Lietuva",
   "city": "Vilnius",
   "state": "Vilniaus apskritis",
   "zipcode": "01047",
   "streetName": "Geležinkelio g.",
   "countryCode": "LT",
   "neighbourhood": "",
   "provider": "openstreetmap"
  },
  {
   "latitude": 54.67603855,
   "longitude": 25.281411114296752,
   "formattedAddress": "Vilniaus choralinė sinagoga, 39, Pylimo g., Senamiestis, Senamiesčio seniūnija, Vilnius, Vilniaus miesto savivaldybė, Vilniaus apskritis, 01308, Lietuva",
   "country": "Lietuva",
   "city": "Vilnius",
   "state": "Vilniaus apskritis",
   "zipcode": "01308",
   "streetName": "Pylimo g.",
   "streetNumber": "39",
   "countryCode": "LT",
   "neighbourhood": "",
   "provider": "openstreetmap"
  },
  {
   "latitude": 54.6847778,
   "longitude": 25.303,
   "formattedAddress": "Gedimino kapo kalnas, Vilnius, Vilniaus miesto savivaldybė, Vilniaus apskritis, 01209, Lietuva",
   "country": "Lietuva",
   "city": "Vilnius",
   "state": "Vilniaus apskritis",
   "zipcode": "01209",
   "countryCode": "LT",
   "neighbourhood": "",
   "provider": "openstreetmap"
  },
  {
   "latitude": 54.6870833,
   "longitude": 25.2975833,
   "formattedAddress": "Plikasis (Kreivasis) kalnas, T. Kosciuškos g., Senamiestis, Senamiesčio seniūnija, Vilnius, Vilniaus miesto savivaldybė, Vilniaus apskritis, 09232, Lietuva",
   "country": "Lietuva",
   "city": "Vilnius",
   "state": "Vilniaus apskritis",
   "zipcode": "09232",
   "streetName": "T. Kosciuškos g.",
   "countryCode": "LT",
   "neighbourhood": "",
   "provider": "openstreetmap"
  },
  {
   "latitude": 55.930085,
   "longitude": 25.1119614,
   "formattedAddress": "Vilnius, Kupiškio seniūnija, Kupiškio rajono savivaldybė, Panevėžio apskritis, 40460, Lietuva",
   "country": "Lietuva",
   "city": "Vilnius",
   "state": "Panevėžio apskritis",
   "zipcode": "40460",
   "countryCode": "LT",
   "neighbourhood": "",
   "provider": "openstreetmap"
  },
  {
   "latitude": 54.6392198,
   "longitude": 25.2973838,
   "formattedAddress": "Vilnius, Liepkalnio g., Naujininkų seniūnija, Vilnius, Vilniaus miesto savivaldybė, Vilniaus apskritis, 02121, Lietuva",
   "country": "Lietuva",
   "city": "Vilnius",
   "state": "Vilniaus apskritis",
   "zipcode": "02121",
   "streetName": "Liepkalnio g.",
   "countryCode": "LT",
   "neighbourhood": "",
   "provider": "openstreetmap"
  },
  {
   "latitude": 54.6696134,
   "longitude": 25.285775,
   "formattedAddress": "Vilnius, Pelesos g., Kauno-Algirdo kvartalas, Naujamiesčio seniūnija, Vilnius, Vilniaus miesto savivaldybė, Vilniaus apskritis, 02111, Lietuva",
   "country": "Lietuva",
   "city": "Vilnius",
   "state": "Vilniaus apskritis",
   "zipcode": "02111",
   "streetName": "Pelesos g.",
   "countryCode": "LT",
   "neighbourhood": "",
   "provider": "openstreetmap"
  },
  {
   "latitude": 54.6883179,
   "longitude": 25.2135909,
   "formattedAddress": "Vilnius, Sausio 13-osios g., Karoliniškės, Karoliniškių seniūnija, Vilnius, Vilniaus miesto savivaldybė, Vilniaus apskritis, 04347, Lietuva",
   "country": "Lietuva",
   "city": "Vilnius",
   "state": "Vilniaus apskritis",
   "zipcode": "04347",
   "streetName": "Sausio 13-osios g.",
   "countryCode": "LT",
   "neighbourhood": "",
   "provider": "openstreetmap"
  }
 ],
 "Athens": [
  {
   "latitude": 37.9839412,
   "longitude": 23.7283052,
   "formattedAddress": "Αθήνα, Δήμος Αθηναίων, Περιφερειακή Ενότητα Κεντρικού Τομέα Αθηνών, Περιφέρεια Αττικής, Αποκεντρωμένη Διοίκηση Αττικής, 10431, Ελλάς",
   "country": "Ελλάς",
   "city": "Αθήνα",
   "state": "Αποκεντρωμένη Διοίκηση Αττικής",
   "zipcode": "10431",
   "countryCode": "GR",
   "neighbourhood": "",
   "provider": "openstreetmap"
  },
  {
   "latitude": 33.9597677,
   "longitude": -83.376398,
   "formattedAddress": "Athens-Clarke County Unified Government, Athens-Clarke County, United States",
   "country": "United States",
   "city": "Athens-Clarke County Unified Government",
   "countryCode": "US",
   "neighbourhood": "",
   "provider": "openstreetmap"
  },
  {
   "latitude": 32.2044416,
   "longitude": -95.854914,
   "formattedAddress": "Athens, Henderson County, Texas, United States",
   "country": "United States",
   "city": "Athens",
   "state": "Texas",
   "countryCode": "US",
   "neighbourhood": "",
   "provider": "openstreetmap"
  },
  {
   "latitude": 39.3289242,
   "longitude": -82.1012479,
   "formattedAddress": "Athens, Athens County, Ohio, 45701, United States",
   "country": "United States",
   "city": "Athens",
   "state": "Ohio",
   "zipcode": "45701",
   "countryCode": "US",
   "neighbourhood": "",
   "provider": "openstreetmap"
  },
  {
   "latitude": 34.8045487,
   "longitude": -86.9711698,
   "formattedAddress": "Athens, Limestone County, Alabama, 35611, United States",
   "country": "United States",
   "city": "Athens",
   "state": "Alabama",
   "zipcode": "35611",
   "countryCode": "US",
   "neighbourhood": "",
   "provider": "openstreetmap"
  },
  {
   "latitude": 34.7629325,
   "longitude": -86.93813123482244,
   "formattedAddress": "Athens, Limestone County, Alabama, 35611, United States",
   "country": "United States",
   "city": "Athens",
   "state": "Alabama",
   "zipcode": "35611",
   "countryCode": "US",
   "neighbourhood": "",
   "provider": "openstreetmap"
  },
  {
   "latitude": 35.4428864,
   "longitude": -84.5930113,
   "formattedAddress": "Athens, McMinn County, Tennessee, 37371, United States",
   "country": "United States",
   "city": "Athens",
   "state": "Tennessee",
   "zipcode": "37371",
   "countryCode": "US",
   "neighbourhood": "",
   "provider": "openstreetmap"
  },
  {
   "latitude": 35.46980175,
   "longitude": -84.59603004451657,
   "formattedAddress": "Athens, McMinn County, Tennessee, United States",
   "country": "United States",
   "city": "Athens",
   "state": "Tennessee",
   "countryCode": "US",
   "neighbourhood": "",
   "provider": "openstreetmap"
  },
  {
   "latitude": 33.920407,
   "longitude": -118.2790494,
   "formattedAddress": "Athens, Willowbrook, Los Angeles County, California, 90061, United States",
   "country": "United States",
   "state": "California",
   "zipcode": "90061",
   "countryCode": "US",
   "neighbourhood": "",
   "provider": "openstreetmap"
  },
  {
   "latitude": 42.2603648,
   "longitude": -73.8095707,
   "formattedAddress": "Village of Athens, Town of Athens, Greene County, New York, United States",
   "country": "United States",
   "city": "Village of Athens",
   "state": "New York",
   "countryCode": "US",
   "neighbourhood": "",
   "provider": "openstreetmap"
  }
 ],
 "Antwerp": [
  {
   "latitude": 51.2211097,
   "longitude": 4.3997081,
   "formattedAddress": "Antwerpen, Vlaanderen, België / Belgique / Belgien",
   "country": "België / Belgique / Belgien",
   "city": "Antwerpen",
   "state": "Antwerpen",
   "countryCode": "BE",
   "neighbourhood": "",
   "provider": "openstreetmap"
  },
  {
   "latitude": 51.248473450000006,
   "longitude": 4.757383719371841,
   "formattedAddress": "Antwerpen, Vlaanderen, België / Belgique / Belgien",
   "country": "België / Belgique / Belgien",
   "state": "Antwerpen",
   "countryCode": "BE",
   "neighbourhood": "",
   "provider": "openstreetmap"
  },
  {
   "latitude": 51.277046549999994,
   "longitude": 4.544517182331758,
   "formattedAddress": "Antwerpen, Vlaanderen, België / Belgique / Belgien",
   "country": "België / Belgique / Belgien",
   "state": "Antwerpen",
   "countryCode": "BE",
   "neighbourhood": "",
   "provider": "openstreetmap"
  },
  {
   "latitude": 44.199436,
   "longitude": -75.60688,
   "formattedAddress": "Village of Antwerp, Town of Antwerp, Jefferson County, New York, United States",
   "country": "United States",
   "city": "Village of Antwerp",
   "state": "New York",
   "countryCode": "US",
   "neighbourhood": "",
   "provider": "openstreetmap"
  },
  {
   "latitude": 51.2452978,
   "longitude": 4.382442306343581,
   "formattedAddress": "Antwerpen, Vlaanderen, België / Belgique / Belgien",
   "country": "België / Belgique / Belgien",
   "city": "Antwerpen",
   "state": "Antwerpen",
   "countryCode": "BE",
   "neighbourhood": "",
   "provider": "openstreetmap"
  },
  {
   "latitude": 41.1814388,
   "longitude": -84.7405144,
   "formattedAddress": "Antwerp, Paulding County, Ohio, 45813, United States",
   "country": "United States",
   "city": "Antwerp",
   "state": "Ohio",
   "zipcode": "45813",
   "countryCode": "US",
   "neighbourhood": "",
   "provider": "openstreetmap"
  },
  {
   "latitude": 44.199436,
   "longitude": -75.60688,
   "formattedAddress": "Town of Antwerp, Jefferson County, New York, United States",
   "country": "United States",
   "city": "Town of Antwerp",
   "state": "New York",
   "countryCode": "US",
   "neighbourhood": "",
   "provider": "openstreetmap"
  },
  {
   "latitude": -26.1047222,
   "longitude": 28.1558333,
   "formattedAddress": "Antwerp, Johannesburg Ward 32, Sandton, City of Johannesburg Metropolitan Municipality, Gauteng, 1620, South Africa",
   "country": "South Africa",
   "city": "Sandton",
   "state": "Gauteng",
   "zipcode": "1620",
   "countryCode": "ZA",
   "neighbourhood": "",
   "provider": "openstreetmap"
  },
  {
   "latitude": -36.269504,
   "longitude": 141.9754401038411,
   "formattedAddress": "Antwerp, Shire of Hindmarsh, Victoria, Australia",
   "country": "Australia",
   "state": "Victoria",
   "countryCode": "AU",
   "neighbourhood": "",
   "provider": "openstreetmap"
  },
  {
   "latitude": -36.2984732,
   "longitude": 142.0265821,
   "formattedAddress": "Antwerp, Shire of Hindmarsh, Victoria, Australia",
   "country": "Australia",
   "city": "Antwerp",
   "state": "Victoria",
   "countryCode": "AU",
   "neighbourhood": "",
   "provider": "openstreetmap"
  }
 ],
 "Copenhagen": [
  {
   "latitude": 55.6867243,
   "longitude": 12.5700724,
   "formattedAddress": "København, Københavns Kommune, Region Hovedstaden, 1357, Danmark",
   "country": "Danmark",
   "city": "København",
   "state": "Region Hovedstaden",
   "zipcode": "1357",
   "countryCode": "DK",
   "neighbourhood": "",
   "provider": "openstreetmap"
  },
  {
   "latitude": 43.893439,
   "longitude": -75.673828,
   "formattedAddress": "Village of Copenhagen, Town of Denmark, Lewis County, New York, United States",
   "country": "United States",
   "city": "Town of Denmark",
   "state": "New York",
   "countryCode": "US",
   "neighbourhood": "",
   "provider": "openstreetmap"
  },
  {
   "latitude": -12.5228069,
   "longitude": -55.7271273,
   "formattedAddress": "Copenhagen, Sorriso, Região Geográfica Imediata de Sorriso, Região Geográfica Intermediária de Sinop, Mato Grosso, Região Centro-Oeste, 78890-245, Brasil",
   "country": "Brasil",
   "city": "Sorriso",
   "state": "Mato Grosso",
   "zipcode": "78890-245",
   "countryCode": "BR",
   "neighbourhood": "",
   "provider": "openstreetmap"
  },
  {
   "latitude": 55.6729079,
   "longitude": 12.594251897905757,
   "formattedAddress": "Vor Frelsers Kirke, Dronningensgade, Christianshavn, København, Københavns Kommune, Region Hovedstaden, 1416, Danmark",
   "country": "Danmark",
   "city": "København",
   "state": "Region Hovedstaden",
   "zipcode": "1416",
   "streetName": "Dronningensgade",
   "countryCode": "DK",
   "neighbourhood": "",
   "provider": "openstreetmap"
  },
  {
   "latitude": 32.0237703,
   "longitude": -92.0390231,
   "formattedAddress": "Copenhagen, Caldwell Parish, Louisiana, United States",
   "country": "United States",
   "city": "Copenhagen",
   "state": "Louisiana",
   "countryCode": "US",
   "neighbourhood": "",
   "provider": "openstreetmap"
  },
  {
   "latitude": 50.8424927,
   "longitude": -3.506849020560198,
   "formattedAddress": "Copenhagen, Bickleigh, Mid Devon, Devon, England, EX5 4BS, United Kingdom",
   "country": "United Kingdom",
   "city": "Mid Devon",
   "state": "England",
   "zipcode": "EX5 4BS",
   "countryCode": "GB",
   "neighbourhood": "",
   "provider": "openstreetmap"
  },
  {
   "latitude": 42.6760422,
   "longitude": -80.9854895,
   "formattedAddress": "Copenhagen, Elgin County, Southwestern Ontario, Ontario, Canada",
   "country": "Canada",
   "state": "Ontario",
   "countryCode": "CA",
   "neighbourhood": "",
   "provider": "openstreetmap"
  },
  {
   "latitude": 14.493492,
   "longitude": 121.0212311,
   "formattedAddress": "Copenhagen, Merville, Parañaque, Southern Manila District, Metro Manila, 1711, Philippines",
   "country": "Philippines",
   "city": "Parañaque",
   "zipcode": "1711",
   "streetName": "Copenhagen",
   "countryCode": "PH",
   "neighbourhood": "",
   "provider": "openstreetmap"
  },
  {
   "latitude": 14.4602687,
   "longitude": 121.0058368,
   "formattedAddress": "Copenhagen, BF Homes, Parañaque, Southern Manila District, Metro Manila, 1718, Philippines",
   "country": "Philippines",
   "city": "Parañaque",
   "zipcode": "1718",
   "streetName": "Copenhagen",
   "countryCode": "PH",
   "neighbourhood": "",
   "provider": "openstreetmap"
  },
  {
   "latitude": 44.1319864,
   "longitude": -71.1939168,
   "formattedAddress": "Copenhagen, Goodrich Falls, Bartlett, Carroll County, New Hampshire, 03838, United States",
   "country": "United States",
   "city": "Bartlett",
   "state": "New Hampshire",
   "zipcode": "03838",
   "streetName": "Copenhagen",
   "countryCode": "US",
   "neighbourhood": "",
   "provider": "openstreetmap"
  }
 ],
 "Dublin": [
  {
   "latitude": 53.3498006,
   "longitude": -6.2602964,
   "formattedAddress": "Dublin, Dublin 1, Leinster, Éire / Ireland",
   "country": "Éire / Ireland",
   "city": "Dublin",
   "countryCode": "IE",
   "neighbourhood": "",
   "provider": "openstreetmap"
  },
  {
   "latitude": 53.34366745,
   "longitude": -6.254444724511822,
   "formattedAddress": "Trinity College Dublin, College Green, Mansion House A ED, Dublin, County Dublin, Leinster, D02 VR66, Éire / Ireland",
   "country": "Éire / Ireland",
   "city": "Dublin",
   "zipcode": "D02 VR66",
   "streetName": "College Green",
   "countryCode": "IE",
   "neighbourhood": "",
   "provider": "openstreetmap"
  },